{"data":[{"type":"Feature","properties":{"@id":"node/263217812","addr:city":"Livermore","addr:housenumber":"330","addr:postcode":"94551","addr:state":"CA","addr:street":"Airway Boulevard","amenity":"fire_station","name":"Fire Station No. 10","operator":"Livermore-Pleasanton Fire Department"},"geometry":{"type":"Point","coordinates":[-121.8124454,37.695725]},"id":"node/263217812"},{"type":"Feature","properties":{"@id":"node/298297119","addr:city":"Long Beach","addr:housenumber":"160","addr:postcode":"90805","addr:state":"CA","addr:street":"Market Street","addr:unit":"E","amenity":"fire_station","name":"Long Beach Fire Department Station #11","note":"Phone number is non-emergency number","operator":"Long Beach Fire Department","phone":"+1-562-570-9400","source":"http://www.longbeach.gov/fire/fire_station_locations.asp","website":"http://www.longbeach.gov/fire/fire_station_locations.asp"},"geometry":{"type":"Point","coordinates":[-118.1923407,33.8540703]},"id":"node/298297119"},{"type":"Feature","properties":{"@id":"node/298305489","addr:city":"Long Beach","addr:housenumber":"111","addr:postcode":"90802","addr:state":"CA","addr:street":"Pier S Avenue","agency":"Long Beach Fire Dept","amenity":"fire_station","name":"Terminal Island Fire Station","ref":"24","source":"survey;image;usgs_imagery","source_ref":"AM909_DSCS3232"},"geometry":{"type":"Point","coordinates":[-118.2417558,33.758721]},"id":"node/298305489"},{"type":"Feature","properties":{"@id":"node/310972978","addr:city":"Alameda","addr:housenumber":"1300","addr:postcode":"94501","addr:state":"CA","addr:street":"Park Street","amenity":"fire_station","name":"Alameda Fire Department Headquarters"},"geometry":{"type":"Point","coordinates":[-122.2437711,37.7626396]},"id":"node/310972978"},{"type":"Feature","properties":{"@id":"node/345438498","addr:city":"Los Altos","addr:housenumber":"765","addr:postcode":"94022","addr:state":"CA","addr:street":"Fremont Avenue","amenity":"fire_station","ele":"64","gnis:county_name":"Santa Clara","gnis:feature_id":"1828715","gnis:import_uuid":"57871b70-0100-4405-bb30-88b2e001a944","gnis:reviewed":"no","name":"Loyola Fire Station","operator":"Santa Clara County Fire Department","source":"USGS Geonames"},"geometry":{"type":"Point","coordinates":[-122.0933419,37.3576023]},"id":"node/345438498"},{"type":"Feature","properties":{"@id":"node/358833633","addr:city":"Long Barn","addr:housenumber":"25910","addr:postcode":"95346","addr:state":"CA","addr:street":"Long Barn Road","amenity":"fire_station","description":"Volunteer Fire Station","ele":"1513","gnis:county_id":"109","gnis:created":"03/15/1999","gnis:feature_id":"1809402","gnis:state_id":"06","name":"Long Barn Fire Station 54","operator":"Tuolumne County","phone":"+1+209-586-3162"},"geometry":{"type":"Point","coordinates":[-120.1379776,38.0915338]},"id":"node/358833633"},{"type":"Feature","properties":{"@id":"node/368167536","addr:state":"CA","amenity":"fire_station","ele":"147","gnis:county_name":"Alameda","gnis:feature_id":"1665760","gnis:import_uuid":"57871b70-0100-4405-bb30-88b2e001a944","gnis:reviewed":"no","name":"Fire Station Number 4","source":"USGS Geonames"},"geometry":{"type":"Point","coordinates":[-121.784676,37.6610419]},"id":"node/368167536"},{"type":"Feature","properties":{"@id":"node/368167537","addr:state":"CA","amenity":"fire_station","ele":"477","gnis:county_name":"Los Angeles","gnis:feature_id":"1667299","gnis:import_uuid":"57871b70-0100-4405-bb30-88b2e001a944","gnis:reviewed":"no","name":"San Francisquito Canyon Fire Control Station","source":"USGS Geonames"},"geometry":{"type":"Point","coordinates":[-118.5254629,34.5335217]},"id":"node/368167537"},{"type":"Feature","properties":{"@id":"node/368167538","addr:city":"Livermore","addr:housenumber":"951","addr:postcode":"94551","addr:state":"CA","addr:street":"Rincon Avenue","amenity":"fire_station","ele":"138","gnis:county_name":"Alameda","gnis:feature_id":"1665758","gnis:import_uuid":"57871b70-0100-4405-bb30-88b2e001a944","gnis:reviewed":"no","name":"Fire Station No. 7","operator":"Livermore-Pleasanton Fire Department","source":"USGS Geonames"},"geometry":{"type":"Point","coordinates":[-121.783767,37.6886898]},"id":"node/368167538"},{"type":"Feature","properties":{"@id":"node/368167541","addr:housenumber":"1709","addr:state":"CA","addr:street":"Grand Street","amenity":"fire_station","ele":"6","gnis:county_name":"Alameda","gnis:feature_id":"1670742","gnis:import_uuid":"57871b70-0100-4405-bb30-88b2e001a944","name":"Alameda Fire Station 3","source":"USGS Geonames"},"geometry":{"type":"Point","coordinates":[-122.2545223,37.7749736]},"id":"node/368167541"},{"type":"Feature","properties":{"@id":"node/368167545","addr:state":"CA","amenity":"fire_station","ele":"19","gnis:county_name":"San Francisco","gnis:feature_id":"1655378","gnis:import_uuid":"57871b70-0100-4405-bb30-88b2e001a944","gnis:reviewed":"no","name":"Fire Station Number Two","source":"USGS Geonames"},"geometry":{"type":"Point","coordinates":[-122.4046932,37.7907622]},"id":"node/368167545"},{"type":"Feature","properties":{"@id":"node/368167635","addr:city":"Napa","addr:postcode":"94559","addr:state":"CA","addr:street":"930 Seminary Street","amenity":"fire_station","attribution":"Napa County GIS","description":"Fire","ele":"9","gnis:county_name":"Napa","gnis:feature_id":"1800410","gnis:import_uuid":"57871b70-0100-4405-bb30-88b2e001a944","gnis:reviewed":"no","id":"4","name":"Napa City Fire Station 1","phone":"257-9589","source":"USGS Geonames"},"geometry":{"type":"Point","coordinates":[-122.2908857,38.2968312]},"id":"node/368167635"},{"type":"Feature","properties":{"@id":"node/368167638","addr:state":"CA","amenity":"fire_station","ele":"19","gnis:county_name":"Marin","gnis:feature_id":"1800433","gnis:import_uuid":"57871b70-0100-4405-bb30-88b2e001a944","gnis:reviewed":"no","name":"Central Fire Station","source":"USGS Geonames"},"geometry":{"type":"Point","coordinates":[-122.5310875,37.9743679]},"id":"node/368167638"},{"type":"Feature","properties":{"@id":"node/368167639","addr:state":"CA","amenity":"fire_station","ele":"16","gnis:county_name":"Napa","gnis:feature_id":"1800411","gnis:import_uuid":"57871b70-0100-4405-bb30-88b2e001a944","gnis:reviewed":"no","name":"Fire Station Number 2","source":"USGS Geonames"},"geometry":{"type":"Point","coordinates":[-122.2999745,38.3118585]},"id":"node/368167639"},{"type":"Feature","properties":{"@id":"node/368167640","addr:state":"CA","amenity":"fire_station","ele":"9","gnis:county_name":"Solano","gnis:feature_id":"1799896","gnis:import_uuid":"57871b70-0100-4405-bb30-88b2e001a944","gnis:reviewed":"no","name":"Fire Station Number 2","source":"USGS Geonames"},"geometry":{"type":"Point","coordinates":[-122.2480252,38.0965866]},"id":"node/368167640"},{"type":"Feature","properties":{"@id":"node/368167641","addr:housenumber":"1220","addr:postcode":"94590","addr:state":"CA","addr:street":"Marin Street","amenity":"fire_station","ele":"19","gnis:county_name":"Solano","gnis:feature_id":"1799895","gnis:import_uuid":"57871b70-0100-4405-bb30-88b2e001a944","gnis:reviewed":"no","name":"Vallejo Fire Station Number 21","opening_hours":"24/7","source":"USGS Geonames"},"geometry":{"type":"Point","coordinates":[-122.2561168,38.1077496]},"id":"node/368167641"},{"type":"Feature","properties":{"@id":"node/368167643","addr:state":"CA","amenity":"fire_station","ele":"37","gnis:county_name":"Solano","gnis:feature_id":"1799897","gnis:import_uuid":"57871b70-0100-4405-bb30-88b2e001a944","gnis:reviewed":"no","name":"Fire Station Number 3","source":"USGS Geonames"},"geometry":{"type":"Point","coordinates":[-121.9607996,38.3960207]},"id":"node/368167643"},{"type":"Feature","properties":{"@id":"node/368167644","addr:state":"CA","amenity":"fire_station","ele":"206","gnis:county_name":"Fresno","gnis:feature_id":"1811946","gnis:import_uuid":"57871b70-0100-4405-bb30-88b2e001a944","gnis:reviewed":"no","name":"Coalinga Fire Station","source":"USGS Geonames"},"geometry":{"type":"Point","coordinates":[-120.362372,36.1377337]},"id":"node/368167644"},{"type":"Feature","properties":{"@id":"node/368167645","addr:state":"CA","amenity":"fire_station","ele":"95","gnis:county_name":"Fresno","gnis:feature_id":"1811841","gnis:import_uuid":"57871b70-0100-4405-bb30-88b2e001a944","gnis:reviewed":"no","name":"Fire Station Number 2","source":"USGS Geonames"},"geometry":{"type":"Point","coordinates":[-119.6098543,36.5760616]},"id":"node/368167645"},{"type":"Feature","properties":{"@id":"node/368167647","addr:state":"CA","amenity":"fire_station","ele":"84","gnis:county_name":"Madera","gnis:feature_id":"1812681","gnis:import_uuid":"57871b70-0100-4405-bb30-88b2e001a944","gnis:reviewed":"no","name":"Madera Fire Department Station #6","ref":"MDR6","source":"USGS Geonames"},"geometry":{"type":"Point","coordinates":[-120.055917,36.968401]},"id":"node/368167647"},{"type":"Feature","properties":{"@id":"node/368167648","addr:state":"CA","amenity":"fire_station","ele":"36","gnis:county_name":"Marin","gnis:feature_id":"1808979","gnis:import_uuid":"57871b70-0100-4405-bb30-88b2e001a944","gnis:reviewed":"no","name":"Fire Station Number 2","source":"USGS Geonames"},"geometry":{"type":"Point","coordinates":[-122.4794177,37.9035367]},"id":"node/368167648"},{"type":"Feature","properties":{"@id":"node/368167649","addr:city":"Bishop","addr:housenumber":"209","addr:postcode":"93514","addr:state":"CA","addr:street":"West Line Street","amenity":"fire_station","ele":"1265","gnis:county_name":"Inyo","gnis:feature_id":"1804563","gnis:import_uuid":"57871b70-0100-4405-bb30-88b2e001a944","gnis:reviewed":"no","name":"Bishop Fire Department","phone":"(760) 873-5485","source":"USGS Geonames","website":"https://www.cityofbishop.com/departments/fire/"},"geometry":{"type":"Point","coordinates":[-118.3967468,37.3615768]},"id":"node/368167649"},{"type":"Feature","properties":{"@id":"node/368167651","addr:state":"CA","amenity":"fire_station","ele":"651","gnis:county_name":"Tuolumne","gnis:feature_id":"1809351","gnis:import_uuid":"57871b70-0100-4405-bb30-88b2e001a944","gnis:reviewed":"no","name":"Columbia Fire House","source":"USGS Geonames"},"geometry":{"type":"Point","coordinates":[-120.4005293,38.0354202]},"id":"node/368167651"},{"type":"Feature","properties":{"@id":"node/368167652","addr:state":"CA","amenity":"fire_station","ele":"24","gnis:county_name":"San Mateo","gnis:feature_id":"1785757","gnis:import_uuid":"57871b70-0100-4405-bb30-88b2e001a944","gnis:reviewed":"no","name":"Fire Station 63","source":"USGS Geonames","website":"http://www.ssf.net/departments/fire/fire-stations"},"geometry":{"type":"Point","coordinates":[-122.4368243,37.6552027]},"id":"node/368167652"},{"type":"Feature","properties":{"@id":"node/368167653","addr:state":"CA","amenity":"fire_station","ele":"130","gnis:county_name":"San Mateo","gnis:feature_id":"1785902","gnis:import_uuid":"57871b70-0100-4405-bb30-88b2e001a944","gnis:reviewed":"no","name":"Fire Station Number 7","source":"USGS Geonames"},"geometry":{"type":"Point","coordinates":[-122.3331522,37.5223949]},"id":"node/368167653"},{"type":"Feature","properties":{"@id":"node/368167655","addr:state":"CA","alt_name":"San Mateo Fire Station Number 26","amenity":"fire_station","ele":"2","gnis:county_name":"San Mateo","gnis:feature_id":"1785987","gnis:import_uuid":"57871b70-0100-4405-bb30-88b2e001a944","gnis:reviewed":"no","name":"Fire Station Number 6","source":"USGS Geonames"},"geometry":{"type":"Point","coordinates":[-122.2877275,37.549599]},"id":"node/368167655"},{"type":"Feature","properties":{"@id":"node/368167656","addr:state":"CA","amenity":"fire_station","ele":"19","gnis:county_name":"Los Angeles","gnis:feature_id":"1763126","gnis:import_uuid":"57871b70-0100-4405-bb30-88b2e001a944","gnis:reviewed":"no","name":"Long Beach Fire Station 4","source":"USGS Geonames"},"geometry":{"type":"Point","coordinates":[-118.1506222,33.7719618]},"id":"node/368167656"},{"type":"Feature","properties":{"@id":"node/368167659","addr:state":"CA","amenity":"fire_station","ele":"15","gnis:county_name":"Orange","gnis:feature_id":"1765581","gnis:import_uuid":"57871b70-0100-4405-bb30-88b2e001a944","gnis:reviewed":"no","name":"Fountain Valley Fire Station Number 2","source":"USGS Geonames"},"geometry":{"type":"Point","coordinates":[-117.928669,33.7202957]},"id":"node/368167659"},{"type":"Feature","properties":{"@id":"node/368167660","addr:state":"CA","amenity":"fire_station","ele":"9","gnis:county_name":"Sonoma","gnis:feature_id":"1799619","gnis:import_uuid":"57871b70-0100-4405-bb30-88b2e001a944","gnis:reviewed":"no","name":"Fire Station Number 2","source":"USGS Geonames"},"geometry":{"type":"Point","coordinates":[-122.6574962,38.2666418]},"id":"node/368167660"},{"type":"Feature","properties":{"@id":"node/368167661","addr:state":"CA","amenity":"fire_station","ele":"11","gnis:county_name":"Sonoma","gnis:feature_id":"1799829","gnis:import_uuid":"57871b70-0100-4405-bb30-88b2e001a944","gnis:reviewed":"no","name":"Fire Station Number 1","source":"USGS Geonames"},"geometry":{"type":"Point","coordinates":[-122.6366524,38.2335281]},"id":"node/368167661"},{"type":"Feature","properties":{"@id":"node/368167662","addr:state":"CA","amenity":"fire_station","ele":"44","gnis:county_name":"Solano","gnis:feature_id":"1799879","gnis:import_uuid":"57871b70-0100-4405-bb30-88b2e001a944","gnis:reviewed":"no","name":"Allendale Fire Station","source":"USGS Geonames"},"geometry":{"type":"Point","coordinates":[-121.9535776,38.4221312]},"id":"node/368167662"},{"type":"Feature","properties":{"@id":"node/368167664","addr:housenumber":"799","addr:state":"CA","addr:street":"California Dr","alt_name":"Central County Fire Department 34","amenity":"fire_station","ele":"5","gnis:county_name":"San Mateo","gnis:feature_id":"1786039","gnis:import_uuid":"57871b70-0100-4405-bb30-88b2e001a944","name":"Burlingame Number 34","source":"USGS Geonames"},"geometry":{"type":"Point","coordinates":[-122.3538678,37.583269]},"id":"node/368167664"},{"type":"Feature","properties":{"@id":"node/368167665","addr:housenumber":"1399","addr:state":"CA","addr:street":"Rollins Rd","alt_name":"Central County Fire Department 36","amenity":"fire_station","ele":"2","gnis:county_name":"San Mateo","gnis:feature_id":"1786040","gnis:import_uuid":"57871b70-0100-4405-bb30-88b2e001a944","name":"Burlingame No 36","source":"USGS Geonames"},"geometry":{"type":"Point","coordinates":[-122.3673003,37.5909002]},"id":"node/368167665"},{"type":"Feature","properties":{"@id":"node/368167685","addr:state":"CA","amenity":"fire_station","ele":"366","gnis:county_name":"Los Angeles","gnis:feature_id":"1732365","gnis:import_uuid":"57871b70-0100-4405-bb30-88b2e001a944","gnis:reviewed":"no","name":"Los Angeles County Fire Department Station #12","ref":"LAC12","source":"USGS Geonames"},"geometry":{"type":"Point","coordinates":[-118.158525,34.1929618]},"id":"node/368167685"},{"type":"Feature","properties":{"@id":"node/368167687","addr:state":"CA","amenity":"fire_station","ele":"78","gnis:county_name":"Los Angeles","gnis:feature_id":"1731936","gnis:import_uuid":"57871b70-0100-4405-bb30-88b2e001a944","gnis:reviewed":"no","name":"Los Angeles County Fire Department Station #17","ref":"LAC17","source":"USGS Geonames"},"geometry":{"type":"Point","coordinates":[-118.0488896,33.9824977]},"id":"node/368167687"},{"type":"Feature","properties":{"@id":"node/368167688","addr:state":"CA","amenity":"fire_station","ele":"22","gnis:county_name":"Los Angeles","gnis:feature_id":"1724401","gnis:import_uuid":"57871b70-0100-4405-bb30-88b2e001a944","gnis:reviewed":"no","name":"Los Angeles County Fire Department Station #115","ref":"LAC115","source":"USGS Geonames"},"geometry":{"type":"Point","coordinates":[-118.0921295,33.8878402]},"id":"node/368167688"},{"type":"Feature","properties":{"@id":"node/368167695","addr:city":"Norwalk","addr:housenumber":"12110","addr:postcode":"90650","addr:state":"CA","addr:street":"Adoree Street","amenity":"fire_station","ele":"36","gnis:county_name":"Los Angeles","gnis:feature_id":"1724400","gnis:import_uuid":"57871b70-0100-4405-bb30-88b2e001a944","gnis:reviewed":"no","name":"Los Angeles County Fire Dept. Station 20","ref":"LAC20","source":"USGS Geonames"},"geometry":{"type":"Point","coordinates":[-118.0742581,33.9131061]},"id":"node/368167695"},{"type":"Feature","properties":{"@id":"node/368167698","addr:state":"CA","amenity":"fire_station","ele":"154","gnis:county_name":"Los Angeles","gnis:feature_id":"1763004","gnis:import_uuid":"57871b70-0100-4405-bb30-88b2e001a944","gnis:reviewed":"no","name":"Fire Station Number 3","source":"USGS Geonames"},"geometry":{"type":"Point","coordinates":[-118.1474245,34.0922228]},"id":"node/368167698"},{"type":"Feature","properties":{"@id":"node/368167699","addr:state":"CA","amenity":"fire_station","ele":"130","gnis:county_name":"Los Angeles","gnis:feature_id":"1763003","gnis:import_uuid":"57871b70-0100-4405-bb30-88b2e001a944","gnis:reviewed":"no","name":"Fire Station Number 2","source":"USGS Geonames"},"geometry":{"type":"Point","coordinates":[-118.1295146,34.0788988]},"id":"node/368167699"},{"type":"Feature","properties":{"@id":"node/368167701","addr:state":"CA","amenity":"fire_station","ele":"136","gnis:county_name":"Los Angeles","gnis:feature_id":"1744880","gnis:import_uuid":"57871b70-0100-4405-bb30-88b2e001a944","gnis:reviewed":"no","name":"Fire Station Number 4","source":"USGS Geonames"},"geometry":{"type":"Point","coordinates":[-118.151182,34.0758435]},"id":"node/368167701"},{"type":"Feature","properties":{"@id":"node/368167703","addr:state":"CA","amenity":"fire_station","ele":"395","gnis:county_name":"El Dorado","gnis:feature_id":"1733975","gnis:import_uuid":"57871b70-0100-4405-bb30-88b2e001a944","gnis:reviewed":"no","name":"Fire Station Number 1","source":"USGS Geonames"},"geometry":{"type":"Point","coordinates":[-120.978275,38.6604598]},"id":"node/368167703"},{"type":"Feature","properties":{"@id":"node/368167704","addr:state":"CA","amenity":"fire_station","designation":"Lomita Fire Station","ele":"34","gnis:county_name":"Los Angeles","gnis:feature_id":"1733057","gnis:import_uuid":"57871b70-0100-4405-bb30-88b2e001a944","gnis:reviewed":"no","name":"Los Angeles County Fire Department Station #6","ref":"LAC6","source":"USGS Geonames"},"geometry":{"type":"Point","coordinates":[-118.3202072,33.7918429]},"id":"node/368167704"},{"type":"Feature","properties":{"@id":"node/368167707","addr:state":"CA","amenity":"fire_station","ele":"43","gnis:county_name":"Los Angeles","gnis:feature_id":"1693143","gnis:import_uuid":"57871b70-0100-4405-bb30-88b2e001a944","gnis:reviewed":"no","name":"Fire Station Number 5","source":"USGS Geonames"},"geometry":{"type":"Point","coordinates":[-118.4567457,34.014455]},"id":"node/368167707"},{"type":"Feature","properties":{"@id":"node/368167709","addr:state":"CA","amenity":"fire_station","ele":"95","gnis:county_name":"Tehama","gnis:feature_id":"1692689","gnis:import_uuid":"57871b70-0100-4405-bb30-88b2e001a944","gnis:reviewed":"no","name":"Fire Station Number 2","source":"USGS Geonames"},"geometry":{"type":"Point","coordinates":[-122.2430525,40.1768218]},"id":"node/368167709"},{"type":"Feature","properties":{"@id":"node/368167710","addr:state":"CA","amenity":"fire_station","ele":"48","gnis:county_name":"Los Angeles","gnis:feature_id":"1693142","gnis:import_uuid":"57871b70-0100-4405-bb30-88b2e001a944","gnis:reviewed":"no","name":"Fire Station Number 3","source":"USGS Geonames"},"geometry":{"type":"Point","coordinates":[-118.4825801,34.0288986]},"id":"node/368167710"},{"type":"Feature","properties":{"@id":"node/368167711","addr:state":"CA","amenity":"fire_station","ele":"28","gnis:county_name":"Humboldt","gnis:feature_id":"1681869","gnis:import_uuid":"57871b70-0100-4405-bb30-88b2e001a944","gnis:reviewed":"no","name":"Blue Lake Fire Department","source":"USGS Geonames"},"geometry":{"type":"Point","coordinates":[-123.9911711,40.8829071]},"id":"node/368167711"},{"type":"Feature","properties":{"@id":"node/368167715","addr:state":"CA","amenity":"fire_station","ele":"60","gnis:county_name":"Butte","gnis:feature_id":"1723809","gnis:import_uuid":"57871b70-0100-4405-bb30-88b2e001a944","gnis:reviewed":"no","name":"Fire Station Number 2","source":"USGS Geonames"},"geometry":{"type":"Point","coordinates":[-121.8483112,39.742661]},"id":"node/368167715"},{"type":"Feature","properties":{"@id":"node/368167716","addr:state":"CA","amenity":"fire_station","ele":"513","gnis:county_name":"Mendocino","gnis:feature_id":"1724100","gnis:import_uuid":"57871b70-0100-4405-bb30-88b2e001a944","gnis:reviewed":"no","name":"Laytonville Fire Control Station","source":"USGS Geonames"},"geometry":{"type":"Point","coordinates":[-123.4866835,39.7021001]},"id":"node/368167716"},{"type":"Feature","properties":{"@id":"node/368167717","addr:state":"CA","amenity":"fire_station","ele":"194","gnis:county_name":"Placer","gnis:feature_id":"1723518","name":"Station 20","operator":"South Placer Fire District"},"geometry":{"type":"Point","coordinates":[-121.1243747,38.8245416]},"id":"node/368167717"},{"type":"Feature","properties":{"@id":"node/368167720","FIXME":"Verified that it's there but still need to check name, number and operator","addr:state":"CA","amenity":"fire_station","ele":"182","gnis:county_name":"Placer","gnis:feature_id":"1723492","gnis:reviewed":"no","name":"Loomis Fire Station Number 2","source":"USGS Geonames"},"geometry":{"type":"Point","coordinates":[-121.1411275,38.8102764]},"id":"node/368167720"},{"type":"Feature","properties":{"@id":"node/368167722","addr:state":"CA","amenity":"fire_station","ele":"4","gnis:county_name":"Contra Costa","gnis:feature_id":"1701504","gnis:import_uuid":"57871b70-0100-4405-bb30-88b2e001a944","gnis:reviewed":"no","name":"Fire Station Number 7","source":"USGS Geonames"},"geometry":{"type":"Point","coordinates":[-122.3583043,37.9254802]},"id":"node/368167722"},{"type":"Feature","properties":{"@id":"node/368167723","addr:state":"CA","amenity":"fire_station","ele":"-3","gnis:county_name":"Ventura","gnis:feature_id":"1870683","gnis:import_uuid":"57871b70-0100-4405-bb30-88b2e001a944","gnis:reviewed":"no","name":"Fire Station Number 1","source":"USGS Geonames"},"geometry":{"type":"Point","coordinates":[-119.2978899,34.271391]},"id":"node/368167723"},{"type":"Feature","properties":{"@id":"node/368167725","addr:state":"CA","amenity":"fire_station","ele":"861","gnis:county_name":"San Diego","gnis:feature_id":"1870374","gnis:import_uuid":"57871b70-0100-4405-bb30-88b2e001a944","gnis:reviewed":"no","name":"Jacumba Fire Station","source":"USGS Geonames"},"geometry":{"type":"Point","coordinates":[-116.1919612,32.6195069]},"id":"node/368167725"},{"type":"Feature","properties":{"@id":"node/368167726","addr:state":"CA","amenity":"fire_station","ele":"17","gnis:county_name":"Ventura","gnis:feature_id":"1871059","gnis:import_uuid":"57871b70-0100-4405-bb30-88b2e001a944","gnis:reviewed":"no","name":"Fire Station Number 1","source":"USGS Geonames"},"geometry":{"type":"Point","coordinates":[-119.1806942,34.2013948]},"id":"node/368167726"},{"type":"Feature","properties":{"@id":"node/368167727","addr:state":"CA","amenity":"fire_station","ele":"92","gnis:county_name":"Ventura","gnis:feature_id":"1870958","gnis:import_uuid":"57871b70-0100-4405-bb30-88b2e001a944","gnis:reviewed":"no","name":"Somis Fire Station","source":"USGS Geonames"},"geometry":{"type":"Point","coordinates":[-118.9959346,34.2569483]},"id":"node/368167727"},{"type":"Feature","properties":{"@id":"node/368167728","addr:state":"CA","amenity":"fire_station","ele":"45","gnis:county_name":"Ventura","gnis:feature_id":"1871317","gnis:import_uuid":"57871b70-0100-4405-bb30-88b2e001a944","gnis:reviewed":"no","name":"Fire Station Number 54","source":"USGS Geonames"},"geometry":{"type":"Point","coordinates":[-119.0417691,34.2219491]},"id":"node/368167728"},{"type":"Feature","properties":{"@id":"node/368167729","addr:state":"CA","amenity":"fire_station","ele":"153","gnis:county_name":"Ventura","gnis:feature_id":"1871248","gnis:import_uuid":"57871b70-0100-4405-bb30-88b2e001a944","gnis:reviewed":"no","name":"Fire Station Number 55","source":"USGS Geonames"},"geometry":{"type":"Point","coordinates":[-119.0687149,34.2455599]},"id":"node/368167729"},{"type":"Feature","properties":{"@id":"node/368167731","addr:state":"CA","amenity":"fire_station","ele":"36","gnis:county_name":"Ventura","gnis:feature_id":"1871358","gnis:import_uuid":"57871b70-0100-4405-bb30-88b2e001a944","gnis:reviewed":"no","name":"Fire Station Number 52","source":"USGS Geonames"},"geometry":{"type":"Point","coordinates":[-118.9948611,34.2239792]},"id":"node/368167731"},{"type":"Feature","properties":{"@id":"node/368167734","addr:state":"CA","amenity":"fire_station","ele":"9","gnis:county_name":"Santa Cruz","gnis:feature_id":"1873011","gnis:import_uuid":"57871b70-0100-4405-bb30-88b2e001a944","gnis:reviewed":"no","name":"Watsonville Fire Department, Station Number 1","source":"USGS Geonames"},"geometry":{"type":"Point","coordinates":[-121.7568946,36.9080089]},"id":"node/368167734"},{"type":"Feature","properties":{"@id":"node/368167741","addr:state":"CA","amenity":"fire_station","ele":"362","gnis:county_name":"San Bernardino","gnis:feature_id":"1844479","gnis:import_uuid":"57871b70-0100-4405-bb30-88b2e001a944","gnis:reviewed":"no","name":"Fire Station Number 1","source":"USGS Geonames"},"geometry":{"type":"Point","coordinates":[-117.6889443,34.0922321]},"id":"node/368167741"},{"type":"Feature","properties":{"@id":"node/368167742","addr:state":"CA","amenity":"fire_station","ele":"298","gnis:county_name":"San Bernardino","gnis:feature_id":"1844480","gnis:import_uuid":"57871b70-0100-4405-bb30-88b2e001a944","gnis:reviewed":"no","name":"Fire Station Number 2","source":"USGS Geonames"},"geometry":{"type":"Point","coordinates":[-117.6889442,34.0627887]},"id":"node/368167742"},{"type":"Feature","properties":{"@id":"node/368167743","addr:state":"CA","amenity":"fire_station","designation":"Beaumont Fire Station","ele":"793","gnis:county_name":"Riverside","gnis:feature_id":"1848862","gnis:import_uuid":"57871b70-0100-4405-bb30-88b2e001a944","gnis:reviewed":"no","name":"CAL FIRE/Riverside County Fire Department Station #20","ref":"RVC20","source":"local_knowledge"},"geometry":{"type":"Point","coordinates":[-116.9496314,33.9300075]},"id":"node/368167743"},{"type":"Feature","properties":{"@id":"node/368167744","addr:state":"CA","amenity":"fire_station","designation":"Beaumont City Fire Station","ele":"797","gnis:county_name":"Riverside","gnis:feature_id":"1848863","gnis:import_uuid":"57871b70-0100-4405-bb30-88b2e001a944","gnis:reviewed":"yes","name":"Riverside County Fire Department Station #66","ref":"RVC66","source":"local_knowledge"},"geometry":{"type":"Point","coordinates":[-116.9727699,33.92997]},"id":"node/368167744"},{"type":"Feature","properties":{"@id":"node/368167745","addr:state":"CA","amenity":"fire_station","ele":"-41","gnis:county_name":"Imperial","gnis:feature_id":"1868167","gnis:import_uuid":"57871b70-0100-4405-bb30-88b2e001a944","gnis:reviewed":"no","name":"Niland Fire Station","source":"USGS Geonames"},"geometry":{"type":"Point","coordinates":[-115.5130421,33.2389255]},"id":"node/368167745"},{"type":"Feature","properties":{"@id":"node/368167746","addr:state":"CA","amenity":"fire_station","ele":"-50","gnis:county_name":"Imperial","gnis:feature_id":"1868199","gnis:import_uuid":"57871b70-0100-4405-bb30-88b2e001a944","gnis:reviewed":"no","name":"Westmorland Fire Station","source":"USGS Geonames"},"geometry":{"type":"Point","coordinates":[-115.6233311,33.0372738]},"id":"node/368167746"},{"type":"Feature","properties":{"@id":"node/368167759","addr:state":"CA","amenity":"fire_station","ele":"-3","gnis:county_name":"Imperial","gnis:feature_id":"1868223","gnis:import_uuid":"57871b70-0100-4405-bb30-88b2e001a944","gnis:reviewed":"no","name":"Heber Fire Station","source":"USGS Geonames"},"geometry":{"type":"Point","coordinates":[-115.52444,32.730891]},"id":"node/368167759"},{"type":"Feature","properties":{"@id":"node/368167784","addr:state":"CA","amenity":"fire_station","ele":"-11","gnis:county_name":"Imperial","gnis:feature_id":"1868340","gnis:import_uuid":"57871b70-0100-4405-bb30-88b2e001a944","gnis:reviewed":"no","name":"Seeley Fire Station","source":"USGS Geonames"},"geometry":{"type":"Point","coordinates":[-115.692223,32.7908907]},"id":"node/368167784"},{"type":"Feature","properties":{"@id":"node/368167786","addr:state":"CA","amenity":"fire_station","ele":"54","gnis:county_name":"San Diego","gnis:feature_id":"1868357","gnis:import_uuid":"57871b70-0100-4405-bb30-88b2e001a944","gnis:reviewed":"no","name":"Bonsall Fire Station","source":"USGS Geonames"},"geometry":{"type":"Point","coordinates":[-117.2189235,33.2839228]},"id":"node/368167786"},{"type":"Feature","properties":{"@id":"node/368167788","addr:state":"CA","amenity":"fire_station","ele":"214","gnis:county_name":"San Diego","gnis:feature_id":"1868379","gnis:import_uuid":"57871b70-0100-4405-bb30-88b2e001a944","gnis:reviewed":"no","name":"Fallbrook Fire Station","source":"USGS Geonames"},"geometry":{"type":"Point","coordinates":[-117.2489243,33.3833637]},"id":"node/368167788"},{"type":"Feature","properties":{"@id":"node/368167790","addr:state":"CA","amenity":"fire_station","ele":"213","gnis:county_name":"San Diego","gnis:feature_id":"1868380","gnis:import_uuid":"57871b70-0100-4405-bb30-88b2e001a944","gnis:reviewed":"no","name":"Fallbrook Fire Station Number 2","source":"USGS Geonames"},"geometry":{"type":"Point","coordinates":[-117.2130898,33.345032]},"id":"node/368167790"},{"type":"Feature","properties":{"@id":"node/368167792","addr:state":"CA","amenity":"fire_station","ele":"178","gnis:county_name":"San Diego","gnis:feature_id":"1868445","gnis:import_uuid":"57871b70-0100-4405-bb30-88b2e001a944","gnis:reviewed":"no","name":"Borrego Springs Fire Station","source":"USGS Geonames"},"geometry":{"type":"Point","coordinates":[-116.3719563,33.2614271]},"id":"node/368167792"},{"type":"Feature","properties":{"@id":"node/368167794","addr:state":"CA","amenity":"fire_station","ele":"417","gnis:county_name":"San Diego","gnis:feature_id":"1868934","gnis:import_uuid":"57871b70-0100-4405-bb30-88b2e001a944","gnis:reviewed":"no","name":"Valley Center Fire Station","source":"USGS Geonames"},"geometry":{"type":"Point","coordinates":[-117.0236408,33.2355918]},"id":"node/368167794"},{"type":"Feature","properties":{"@id":"node/368167796","addr:state":"CA","amenity":"fire_station","ele":"528","gnis:county_name":"San Diego","gnis:feature_id":"1869848","gnis:import_uuid":"57871b70-0100-4405-bb30-88b2e001a944","gnis:reviewed":"no","name":"Alpine Fire Station","source":"USGS Geonames"},"geometry":{"type":"Point","coordinates":[-116.7773115,32.8359975]},"id":"node/368167796"},{"type":"Feature","properties":{"@id":"node/368167810","addr:state":"CA","amenity":"fire_station","ele":"10","gnis:county_name":"San Diego","gnis:feature_id":"1869943","gnis:import_uuid":"57871b70-0100-4405-bb30-88b2e001a944","gnis:reviewed":"no","name":"Fire Station Number 4","source":"USGS Geonames"},"geometry":{"type":"Point","coordinates":[-117.1575639,32.709569]},"id":"node/368167810"},{"type":"Feature","properties":{"@id":"node/368167835","addr:state":"CA","amenity":"fire_station","ele":"123","gnis:county_name":"Kern","gnis:feature_id":"1839003","gnis:import_uuid":"57871b70-0100-4405-bb30-88b2e001a944","gnis:reviewed":"no","name":"Fire Station Number 1","source":"USGS Geonames"},"geometry":{"type":"Point","coordinates":[-119.0212125,35.378292]},"id":"node/368167835"},{"type":"Feature","properties":{"@id":"node/368167837","addr:state":"CA","amenity":"fire_station","ele":"97","gnis:county_name":"Kern","gnis:feature_id":"1835969","gnis:import_uuid":"57871b70-0100-4405-bb30-88b2e001a944","gnis:reviewed":"no","name":"Fire Station Number 1","source":"USGS Geonames"},"geometry":{"type":"Point","coordinates":[-119.2445535,35.7724536]},"id":"node/368167837"},{"type":"Feature","properties":{"@id":"node/368167838","addr:state":"CA","amenity":"fire_station","ele":"715","gnis:county_name":"Kern","gnis:feature_id":"1835858","gnis:import_uuid":"57871b70-0100-4405-bb30-88b2e001a944","gnis:reviewed":"no","name":"Fire Station Number 77","source":"USGS Geonames"},"geometry":{"type":"Point","coordinates":[-117.686217,35.6003515]},"id":"node/368167838"},{"type":"Feature","properties":{"@id":"node/368167840","addr:state":"CA","amenity":"fire_station","ele":"130","gnis:county_name":"Kern","gnis:feature_id":"1839092","gnis:import_uuid":"57871b70-0100-4405-bb30-88b2e001a944","gnis:reviewed":"no","name":"Fire Station Number 2","source":"USGS Geonames"},"geometry":{"type":"Point","coordinates":[-118.9912115,35.3777363]},"id":"node/368167840"},{"type":"Feature","properties":{"@id":"node/368167841","addr:state":"CA","amenity":"fire_station","ele":"118","gnis:county_name":"Kern","gnis:feature_id":"1839045","gnis:import_uuid":"57871b70-0100-4405-bb30-88b2e001a944","gnis:reviewed":"no","name":"Fire Station Number 11","source":"USGS Geonames"},"geometry":{"type":"Point","coordinates":[-119.0794145,35.3545739]},"id":"node/368167841"},{"type":"Feature","properties":{"@id":"node/368167850","addr:state":"CA","amenity":"fire_station","ele":"425","gnis:county_name":"San Bernardino","gnis:feature_id":"1839571","gnis:import_uuid":"57871b70-0100-4405-bb30-88b2e001a944","gnis:reviewed":"no","name":"Redlands Fire Station #1","operator":"Redlands Fire Department","ref":"RDL1","source":"USGS Geonames"},"geometry":{"type":"Point","coordinates":[-117.1763429,34.0557878]},"id":"node/368167850"},{"type":"Feature","properties":{"@id":"node/368167851","addr:state":"CA","amenity":"fire_station","ele":"748","gnis:county_name":"Kern","gnis:feature_id":"1839472","gnis:import_uuid":"57871b70-0100-4405-bb30-88b2e001a944","gnis:reviewed":"no","name":"Boron Fire Station","source":"USGS Geonames"},"geometry":{"type":"Point","coordinates":[-117.6503377,35.0027534]},"id":"node/368167851"},{"type":"Feature","properties":{"@id":"node/368167853","addr:state":"CA","amenity":"fire_station","ele":"121","gnis:county_name":"Kern","gnis:feature_id":"1839168","gnis:import_uuid":"57871b70-0100-4405-bb30-88b2e001a944","gnis:reviewed":"no","name":"Fire Station Number 6","source":"USGS Geonames"},"geometry":{"type":"Point","coordinates":[-119.0048234,35.353848]},"id":"node/368167853"},{"type":"Feature","properties":{"@id":"node/368167854","addr:state":"CA","amenity":"fire_station","ele":"306","gnis:county_name":"San Bernardino","gnis:feature_id":"1844433","gnis:import_uuid":"57871b70-0100-4405-bb30-88b2e001a944","gnis:reviewed":"no","name":"Fire Station Number 1","source":"USGS Geonames"},"geometry":{"type":"Point","coordinates":[-117.646443,34.065011]},"id":"node/368167854"},{"type":"Feature","properties":{"@id":"node/368167855","addr:state":"CA","amenity":"fire_station","ele":"340","gnis:county_name":"San Bernardino","gnis:feature_id":"1842240","gnis:import_uuid":"57871b70-0100-4405-bb30-88b2e001a944","gnis:reviewed":"no","name":"Central Valley Fire District Headquarters","source":"USGS Geonames"},"geometry":{"type":"Point","coordinates":[-117.4694935,34.0777893]},"id":"node/368167855"},{"type":"Feature","properties":{"@id":"node/368167856","addr:state":"CA","amenity":"fire_station","ele":"417","gnis:county_name":"San Bernardino","gnis:feature_id":"1839573","gnis:import_uuid":"57871b70-0100-4405-bb30-88b2e001a944","gnis:reviewed":"no","name":"Fire Station #3","ref":"3","source":"USGS Geonames"},"geometry":{"type":"Point","coordinates":[-117.1828161,34.0739019]},"id":"node/368167856"},{"type":"Feature","properties":{"@id":"node/368167857","addr:state":"CA","amenity":"fire_station","ele":"557","gnis:county_name":"San Bernardino","gnis:feature_id":"1839572","gnis:import_uuid":"57871b70-0100-4405-bb30-88b2e001a944","gnis:reviewed":"no","name":"Fire Station Number 2","source":"USGS Geonames"},"geometry":{"type":"Point","coordinates":[-117.155314,34.0261258]},"id":"node/368167857"},{"type":"Feature","properties":{"@id":"node/368167858","addr:state":"CA","amenity":"fire_station","ele":"31","gnis:county_name":"Stanislaus","gnis:feature_id":"1816796","gnis:import_uuid":"57871b70-0100-4405-bb30-88b2e001a944","gnis:reviewed":"no","name":"Fire Station Number 2","source":"USGS Geonames"},"geometry":{"type":"Point","coordinates":[-120.8527053,37.494379]},"id":"node/368167858"},{"type":"Feature","properties":{"@id":"node/368167859","addr:state":"CA","amenity":"fire_station","ele":"27","gnis:county_name":"Stanislaus","gnis:feature_id":"1816895","gnis:import_uuid":"57871b70-0100-4405-bb30-88b2e001a944","gnis:reviewed":"no","name":"Fire Station Number 2","source":"USGS Geonames"},"geometry":{"type":"Point","coordinates":[-121.0049339,37.6315973]},"id":"node/368167859"},{"type":"Feature","properties":{"@id":"node/368167863","addr:state":"CA","amenity":"fire_station","ele":"32","gnis:county_name":"Stanislaus","gnis:feature_id":"1816795","gnis:import_uuid":"57871b70-0100-4405-bb30-88b2e001a944","gnis:reviewed":"no","name":"Fire Station Number 1","source":"USGS Geonames"},"geometry":{"type":"Point","coordinates":[-120.8404228,37.4953754]},"id":"node/368167863"},{"type":"Feature","properties":{"@id":"node/368167864","addr:city":"Lodi","addr:housenumber":"210","addr:postcode":"95240","addr:state":"CA","addr:street":"Elm Street","amenity":"fire_station","ele":"15","gnis:county_name":"San Joaquin","gnis:feature_id":"1827201","gnis:import_uuid":"57871b70-0100-4405-bb30-88b2e001a944","gnis:reviewed":"no","name":"Central Fire Station","source":"USGS Geonames"},"geometry":{"type":"Point","coordinates":[-121.2756254,38.1352584]},"id":"node/368167864"},{"type":"Feature","properties":{"@id":"node/368167865","addr:state":"CA","amenity":"fire_station","ele":"7","gnis:county_name":"San Joaquin","gnis:feature_id":"1827351","gnis:import_uuid":"57871b70-0100-4405-bb30-88b2e001a944","gnis:reviewed":"no","name":"East Side Fire Station Number 1","source":"USGS Geonames"},"geometry":{"type":"Point","coordinates":[-121.2668905,37.9732568]},"id":"node/368167865"},{"type":"Feature","properties":{"@id":"node/368167866","addr:state":"CA","amenity":"fire_station","ele":"27","gnis:county_name":"Stanislaus","gnis:feature_id":"1816896","gnis:import_uuid":"57871b70-0100-4405-bb30-88b2e001a944","gnis:reviewed":"no","name":"Fire Station Number 4","source":"USGS Geonames"},"geometry":{"type":"Point","coordinates":[-121.002712,37.652708]},"id":"node/368167866"},{"type":"Feature","properties":{"@id":"node/368167868","addr:state":"CA","amenity":"fire_station","ele":"5","gnis:county_name":"San Joaquin","gnis:feature_id":"1827388","gnis:import_uuid":"57871b70-0100-4405-bb30-88b2e001a944","gnis:reviewed":"no","name":"Central Fire Station","source":"USGS Geonames"},"geometry":{"type":"Point","coordinates":[-121.2916128,37.9474241]},"id":"node/368167868"},{"type":"Feature","properties":{"@id":"node/368167872","addr:state":"CA","amenity":"fire_station","ele":"4","gnis:county_name":"San Joaquin","gnis:feature_id":"1827354","gnis:import_uuid":"57871b70-0100-4405-bb30-88b2e001a944","gnis:reviewed":"no","name":"Fire Station Number 6","source":"USGS Geonames"},"geometry":{"type":"Point","coordinates":[-121.3137541,37.9594803]},"id":"node/368167872"},{"type":"Feature","properties":{"@id":"node/368167879","addr:city":"Los Altos","addr:housenumber":"10","addr:postcode":"94022","addr:state":"CA","addr:street":"Almond Avenue","amenity":"fire_station","ele":"49","gnis:county_name":"Santa Clara","gnis:feature_id":"1828569","gnis:import_uuid":"57871b70-0100-4405-bb30-88b2e001a944","gnis:reviewed":"no","name":"Los Altos Fire Station","operator":"Santa Clara County Fire Department","source":"USGS Geonames"},"geometry":{"type":"Point","coordinates":[-122.1136729,37.3847086]},"id":"node/368167879"},{"type":"Feature","properties":{"@id":"node/368167881","addr:state":"CA","amenity":"fire_station","ele":"33","gnis:county_name":"Sacramento","gnis:feature_id":"2061490","gnis:import_uuid":"57871b70-0100-4405-bb30-88b2e001a944","gnis:reviewed":"no","name":"Sacramento Metro Fire Station Number 24","source":"USGS Geonames"},"geometry":{"type":"Point","coordinates":[-121.3499517,38.6551816]},"id":"node/368167881"},{"type":"Feature","properties":{"@id":"node/368167884","addr:state":"CA","amenity":"fire_station","ele":"51","gnis:county_name":"Sacramento","gnis:feature_id":"2061491","gnis:import_uuid":"57871b70-0100-4405-bb30-88b2e001a944","gnis:reviewed":"no","name":"Sacramento Metro Fire Station Number 25","source":"USGS Geonames"},"geometry":{"type":"Point","coordinates":[-121.3313402,38.7010137]},"id":"node/368167884"},{"type":"Feature","properties":{"@id":"node/368167886","addr:state":"CA","amenity":"fire_station","ele":"46","gnis:county_name":"Sacramento","gnis:feature_id":"2061493","gnis:import_uuid":"57871b70-0100-4405-bb30-88b2e001a944","gnis:reviewed":"no","name":"Sacramento Metro Fire Station Number 27","source":"USGS Geonames"},"geometry":{"type":"Point","coordinates":[-121.2921725,38.710458]},"id":"node/368167886"},{"type":"Feature","properties":{"@id":"node/368167887","addr:state":"CA","amenity":"fire_station","ele":"23","gnis:county_name":"Sacramento","gnis:feature_id":"2061486","gnis:import_uuid":"57871b70-0100-4405-bb30-88b2e001a944","gnis:reviewed":"no","name":"Sacramento Metro Fire Station Number 117","source":"USGS Geonames"},"geometry":{"type":"Point","coordinates":[-121.419398,38.7140689]},"id":"node/368167887"},{"type":"Feature","properties":{"@id":"node/368167888","addr:state":"CA","amenity":"fire_station","ele":"51","gnis:county_name":"Sacramento","gnis:feature_id":"2061487","gnis:import_uuid":"57871b70-0100-4405-bb30-88b2e001a944","gnis:reviewed":"no","name":"Sacramento Metro Fire Station Number 21","source":"USGS Geonames"},"geometry":{"type":"Point","coordinates":[-121.2835611,38.6785144]},"id":"node/368167888"},{"type":"Feature","properties":{"@id":"node/368167889","addr:state":"CA","amenity":"fire_station","ele":"75","gnis:county_name":"Sacramento","gnis:feature_id":"2061488","gnis:import_uuid":"57871b70-0100-4405-bb30-88b2e001a944","gnis:reviewed":"no","name":"Sacramento Metro Fire Station Number 22","source":"USGS Geonames"},"geometry":{"type":"Point","coordinates":[-121.2110592,38.6799034]},"id":"node/368167889"},{"type":"Feature","properties":{"@id":"node/368167892","addr:state":"CA","amenity":"fire_station","ele":"16","gnis:county_name":"Sacramento","gnis:feature_id":"2061483","gnis:import_uuid":"57871b70-0100-4405-bb30-88b2e001a944","gnis:reviewed":"no","name":"Sacramento Metro Fire Station Number 111","source":"USGS Geonames"},"geometry":{"type":"Point","coordinates":[-121.4496766,38.6904583]},"id":"node/368167892"},{"type":"Feature","properties":{"@id":"node/368167893","addr:state":"CA","amenity":"fire_station","ele":"25","gnis:county_name":"Sacramento","gnis:feature_id":"2061484","gnis:import_uuid":"57871b70-0100-4405-bb30-88b2e001a944","gnis:reviewed":"no","name":"Sacramento Metro Fire Station Number 112","source":"USGS Geonames"},"geometry":{"type":"Point","coordinates":[-121.3877305,38.6907361]},"id":"node/368167893"},{"type":"Feature","properties":{"@id":"node/368167895","addr:state":"CA","amenity":"fire_station","ele":"14","gnis:county_name":"Sacramento","gnis:feature_id":"2061485","gnis:import_uuid":"57871b70-0100-4405-bb30-88b2e001a944","gnis:reviewed":"no","name":"Sacramento Metro Fire Station Number 116","source":"USGS Geonames"},"geometry":{"type":"Point","coordinates":[-121.4668993,38.7143465]},"id":"node/368167895"},{"type":"Feature","properties":{"@id":"node/368167896","addr:state":"CA","amenity":"fire_station","ele":"17","gnis:county_name":"Sacramento","gnis:feature_id":"2061478","gnis:import_uuid":"57871b70-0100-4405-bb30-88b2e001a944","gnis:reviewed":"no","name":"Sacramento Metro Fire Station Number 106","source":"USGS Geonames"},"geometry":{"type":"Point","coordinates":[-121.3849524,38.6065716]},"id":"node/368167896"},{"type":"Feature","properties":{"@id":"node/368167897","addr:state":"CA","amenity":"fire_station","ele":"22","gnis:county_name":"Sacramento","gnis:feature_id":"2061479","gnis:import_uuid":"57871b70-0100-4405-bb30-88b2e001a944","gnis:reviewed":"no","name":"Sacramento Metro Fire Station Number 107","source":"USGS Geonames"},"geometry":{"type":"Point","coordinates":[-121.3746743,38.5821278]},"id":"node/368167897"},{"type":"Feature","properties":{"@id":"node/368167898","addr:state":"CA","amenity":"fire_station","ele":"48","gnis:county_name":"Sacramento","gnis:feature_id":"2061480","gnis:import_uuid":"57871b70-0100-4405-bb30-88b2e001a944","gnis:reviewed":"no","name":"Sacramento Metro Fire Station Number 108","source":"USGS Geonames"},"geometry":{"type":"Point","coordinates":[-121.308006,38.6493484]},"id":"node/368167898"},{"type":"Feature","properties":{"@id":"node/368167899","addr:state":"CA","amenity":"fire_station","ele":"36","gnis:county_name":"Sacramento","gnis:feature_id":"2061481","gnis:import_uuid":"57871b70-0100-4405-bb30-88b2e001a944","gnis:reviewed":"no","name":"Sacramento Metro Fire Station Number 109","source":"USGS Geonames"},"geometry":{"type":"Point","coordinates":[-121.3332844,38.620738]},"id":"node/368167899"},{"type":"Feature","properties":{"@id":"node/368167900","addr:state":"CA","amenity":"fire_station","ele":"27","gnis:county_name":"Sacramento","gnis:feature_id":"2061475","gnis:import_uuid":"57871b70-0100-4405-bb30-88b2e001a944","gnis:reviewed":"no","name":"Sacramento Metro Fire Station Number 102","source":"USGS Geonames"},"geometry":{"type":"Point","coordinates":[-121.3593962,38.6179603]},"id":"node/368167900"},{"type":"Feature","properties":{"@id":"node/368167901","addr:state":"CA","amenity":"fire_station","ele":"20","gnis:county_name":"Sacramento","gnis:feature_id":"2061474","gnis:import_uuid":"57871b70-0100-4405-bb30-88b2e001a944","gnis:reviewed":"no","name":"Sacramento Metro Fire Station Number 101","source":"USGS Geonames"},"geometry":{"type":"Point","coordinates":[-121.401064,38.6199045]},"id":"node/368167901"},{"type":"Feature","properties":{"@id":"node/368167902","addr:state":"CA","amenity":"fire_station","ele":"15","gnis:county_name":"Sacramento","gnis:feature_id":"2061477","gnis:import_uuid":"57871b70-0100-4405-bb30-88b2e001a944","gnis:reviewed":"no","name":"Sacramento Metro Fire Station Number 105","source":"USGS Geonames"},"geometry":{"type":"Point","coordinates":[-121.3993971,38.5818499]},"id":"node/368167902"},{"type":"Feature","properties":{"@id":"node/368167903","addr:state":"CA","amenity":"fire_station","ele":"25","gnis:county_name":"Sacramento","gnis:feature_id":"2061476","gnis:import_uuid":"57871b70-0100-4405-bb30-88b2e001a944","gnis:reviewed":"no","name":"Sacramento Metro Fire Station Number 103","source":"USGS Geonames"},"geometry":{"type":"Point","coordinates":[-121.3824524,38.635182]},"id":"node/368167903"},{"type":"Feature","properties":{"@id":"node/368167904","addr:state":"CA","amenity":"fire_station","ele":"7","gnis:county_name":"Sacramento","gnis:feature_id":"2061468","gnis:import_uuid":"57871b70-0100-4405-bb30-88b2e001a944","gnis:reviewed":"no","name":"Sacramento Fire Station Number 7","source":"USGS Geonames"},"geometry":{"type":"Point","coordinates":[-121.4268974,38.4682417]},"id":"node/368167904"},{"type":"Feature","properties":{"@id":"node/368167905","addr:state":"CA","amenity":"fire_station","ele":"13","gnis:county_name":"Sacramento","gnis:feature_id":"2061467","gnis:import_uuid":"57871b70-0100-4405-bb30-88b2e001a944","gnis:reviewed":"no","name":"Sacramento Fire Station Number 60","source":"USGS Geonames"},"geometry":{"type":"Point","coordinates":[-121.3927303,38.5487953]},"id":"node/368167905"},{"type":"Feature","properties":{"@id":"node/368167906","addr:state":"CA","amenity":"fire_station","ele":"13","gnis:county_name":"Sacramento","gnis:feature_id":"2061473","gnis:import_uuid":"57871b70-0100-4405-bb30-88b2e001a944","gnis:reviewed":"no","name":"Sacramento Metro Fire Department","source":"USGS Geonames"},"geometry":{"type":"Point","coordinates":[-121.4174532,38.5893497]},"id":"node/368167906"},{"type":"Feature","properties":{"@id":"node/368167907","addr:state":"CA","amenity":"fire_station","ele":"11","gnis:county_name":"Sacramento","gnis:feature_id":"2061469","gnis:import_uuid":"57871b70-0100-4405-bb30-88b2e001a944","gnis:reviewed":"no","name":"Sacramento Fire Station Number 8","source":"USGS Geonames"},"geometry":{"type":"Point","coordinates":[-121.4277313,38.5676836]},"id":"node/368167907"},{"type":"Feature","properties":{"@id":"node/368167908","addr:state":"CA","amenity":"fire_station","ele":"6","gnis:county_name":"Sacramento","gnis:feature_id":"2061464","gnis:import_uuid":"57871b70-0100-4405-bb30-88b2e001a944","gnis:reviewed":"no","name":"Sacramento Fire Station Number 5","source":"USGS Geonames"},"geometry":{"type":"Point","coordinates":[-121.5035665,38.5649056]},"id":"node/368167908"},{"type":"Feature","properties":{"@id":"node/368167909","addr:state":"CA","amenity":"fire_station","ele":"8","gnis:county_name":"Sacramento","gnis:feature_id":"2061463","gnis:import_uuid":"57871b70-0100-4405-bb30-88b2e001a944","gnis:reviewed":"no","name":"Sacramento Fire Station Number 4","source":"USGS Geonames"},"geometry":{"type":"Point","coordinates":[-121.4649544,38.5710166]},"id":"node/368167909"},{"type":"Feature","properties":{"@id":"node/368167910","addr:state":"CA","amenity":"fire_station","ele":"6","gnis:county_name":"Sacramento","gnis:feature_id":"2061466","gnis:import_uuid":"57871b70-0100-4405-bb30-88b2e001a944","gnis:reviewed":"no","name":"Sacramento Fire Station Number 57","source":"USGS Geonames"},"geometry":{"type":"Point","coordinates":[-121.4538427,38.4854633]},"id":"node/368167910"},{"type":"Feature","properties":{"@id":"node/368167911","addr:state":"CA","amenity":"fire_station","ele":"8","gnis:county_name":"Sacramento","gnis:feature_id":"2061465","gnis:import_uuid":"57871b70-0100-4405-bb30-88b2e001a944","gnis:reviewed":"no","name":"Sacramento Fire Station Number 56","source":"USGS Geonames"},"geometry":{"type":"Point","coordinates":[-121.4657876,38.509907]},"id":"node/368167911"},{"type":"Feature","properties":{"@id":"node/368167912","addr:state":"CA","amenity":"fire_station","ele":"10","gnis:county_name":"Sacramento","gnis:feature_id":"2061460","gnis:import_uuid":"57871b70-0100-4405-bb30-88b2e001a944","gnis:reviewed":"no","name":"Sacramento Fire Station Number 19","source":"USGS Geonames"},"geometry":{"type":"Point","coordinates":[-121.4274535,38.5960162]},"id":"node/368167912"},{"type":"Feature","properties":{"@id":"node/368167914","addr:state":"CA","amenity":"fire_station","ele":"9","gnis:county_name":"Sacramento","gnis:feature_id":"2061459","gnis:import_uuid":"57871b70-0100-4405-bb30-88b2e001a944","gnis:reviewed":"no","name":"Sacramento Fire Station Number 18","source":"USGS Geonames"},"geometry":{"type":"Point","coordinates":[-121.479955,38.6471259]},"id":"node/368167914"},{"type":"Feature","properties":{"@id":"node/368167920","addr:state":"CA","amenity":"fire_station","ele":"8","gnis:county_name":"Sacramento","gnis:feature_id":"2061461","gnis:import_uuid":"57871b70-0100-4405-bb30-88b2e001a944","gnis:reviewed":"no","name":"Sacramento Fire Station Number 2","source":"USGS Geonames"},"geometry":{"type":"Point","coordinates":[-121.4889453,38.580629]},"id":"node/368167920"},{"type":"Feature","properties":{"@id":"node/368167925","addr:state":"CA","amenity":"fire_station","ele":"4","gnis:county_name":"Sacramento","gnis:feature_id":"2061457","gnis:import_uuid":"57871b70-0100-4405-bb30-88b2e001a944","gnis:reviewed":"no","name":"Sacramento Fire Station Number 16","source":"USGS Geonames"},"geometry":{"type":"Point","coordinates":[-121.4799546,38.4907408]},"id":"node/368167925"},{"type":"Feature","properties":{"@id":"node/368167926","addr:state":"CA","amenity":"fire_station","ele":"13","gnis:county_name":"Sacramento","gnis:feature_id":"2061458","gnis:import_uuid":"57871b70-0100-4405-bb30-88b2e001a944","gnis:reviewed":"no","name":"Sacramento Fire Station Number 17","source":"USGS Geonames"},"geometry":{"type":"Point","coordinates":[-121.4355094,38.6476816]},"id":"node/368167926"},{"type":"Feature","properties":{"@id":"node/368167927","addr:state":"CA","amenity":"fire_station","ele":"9","gnis:county_name":"Sacramento","gnis:feature_id":"2061455","gnis:import_uuid":"57871b70-0100-4405-bb30-88b2e001a944","gnis:reviewed":"no","name":"Sacramento Fire Station Number 14","source":"USGS Geonames"},"geometry":{"type":"Point","coordinates":[-121.4827623,38.5910465]},"id":"node/368167927"},{"type":"Feature","properties":{"@id":"node/368167929","addr:state":"CA","amenity":"fire_station","ele":"8","gnis:county_name":"Sacramento","gnis:feature_id":"2061453","gnis:import_uuid":"57871b70-0100-4405-bb30-88b2e001a944","gnis:reviewed":"no","name":"Sacramento Fire Station Number 12","source":"USGS Geonames"},"geometry":{"type":"Point","coordinates":[-121.4835659,38.5337953]},"id":"node/368167929"},{"type":"Feature","properties":{"@id":"node/368167930","addr:state":"CA","amenity":"fire_station","ele":"3","gnis:county_name":"Sacramento","gnis:feature_id":"2061454","gnis:import_uuid":"57871b70-0100-4405-bb30-88b2e001a944","gnis:reviewed":"no","name":"Sacramento Fire Station Number 13","source":"USGS Geonames"},"geometry":{"type":"Point","coordinates":[-121.518289,38.5165734]},"id":"node/368167930"},{"type":"Feature","properties":{"@id":"node/368167931","addr:state":"CA","amenity":"fire_station","ele":"11","gnis:county_name":"Sacramento","gnis:feature_id":"2061451","gnis:import_uuid":"57871b70-0100-4405-bb30-88b2e001a944","gnis:reviewed":"no","name":"Sacramento Fire Station Number 10","source":"USGS Geonames"},"geometry":{"type":"Point","coordinates":[-121.4257866,38.5237957]},"id":"node/368167931"},{"type":"Feature","properties":{"@id":"node/368167932","addr:state":"CA","amenity":"fire_station","ele":"2","gnis:county_name":"Sacramento","gnis:feature_id":"2061452","gnis:import_uuid":"57871b70-0100-4405-bb30-88b2e001a944","gnis:reviewed":"no","name":"Sacramento Fire Station Number 11","source":"USGS Geonames"},"geometry":{"type":"Point","coordinates":[-121.531067,38.4979628]},"id":"node/368167932"},{"type":"Feature","properties":{"@id":"node/368167933","addr:state":"CA","amenity":"fire_station","ele":"7","gnis:county_name":"Sacramento","gnis:feature_id":"2061449","gnis:import_uuid":"57871b70-0100-4405-bb30-88b2e001a944","gnis:reviewed":"no","name":"Sacramento Fire Department","source":"USGS Geonames"},"geometry":{"type":"Point","coordinates":[-121.4988441,38.521851]},"id":"node/368167933"},{"type":"Feature","properties":{"@id":"node/368167934","addr:state":"CA","amenity":"fire_station","ele":"6","gnis:county_name":"Sacramento","gnis:feature_id":"2061450","gnis:import_uuid":"57871b70-0100-4405-bb30-88b2e001a944","gnis:reviewed":"no","name":"Sacramento Fire Station Number 1","source":"USGS Geonames"},"geometry":{"type":"Point","coordinates":[-121.5013443,38.5735165]},"id":"node/368167934"},{"type":"Feature","properties":{"@id":"node/368167936","addr:state":"CA","amenity":"fire_station","ele":"7","gnis:county_name":"Sacramento","gnis:feature_id":"2061428","gnis:import_uuid":"57871b70-0100-4405-bb30-88b2e001a944","gnis:reviewed":"no","name":"Sacramento Airport Fire Station","source":"USGS Geonames"},"geometry":{"type":"Point","coordinates":[-121.5907918,38.6996253]},"id":"node/368167936"},{"type":"Feature","properties":{"@id":"node/368167938","addr:state":"CA","amenity":"fire_station","ele":"3","gnis:county_name":"Sacramento","gnis:feature_id":"2061356","gnis:import_uuid":"57871b70-0100-4405-bb30-88b2e001a944","gnis:reviewed":"no","name":"Hood Fire Station","source":"USGS Geonames"},"geometry":{"type":"Point","coordinates":[-121.5130097,38.3665778]},"id":"node/368167938"},{"type":"Feature","properties":{"@id":"node/368167939","addr:state":"CA","amenity":"fire_station","ele":"2","gnis:county_name":"Sacramento","gnis:feature_id":"2061360","gnis:import_uuid":"57871b70-0100-4405-bb30-88b2e001a944","gnis:reviewed":"no","name":"Isleton City Fire Station","source":"USGS Geonames"},"geometry":{"type":"Point","coordinates":[-121.6126082,38.1614364]},"id":"node/368167939"},{"type":"Feature","properties":{"@id":"node/368167943","addr:state":"CA","amenity":"fire_station","ele":"23","gnis:county_name":"Sacramento","gnis:feature_id":"2061351","gnis:import_uuid":"57871b70-0100-4405-bb30-88b2e001a944","gnis:reviewed":"no","name":"Herald Fire Station Number 87","source":"USGS Geonames"},"geometry":{"type":"Point","coordinates":[-121.2407807,38.2938031]},"id":"node/368167943"},{"type":"Feature","properties":{"@id":"node/368167944","addr:state":"CA","amenity":"fire_station","ele":"33","gnis:county_name":"Sacramento","gnis:feature_id":"2061352","gnis:import_uuid":"57871b70-0100-4405-bb30-88b2e001a944","gnis:reviewed":"no","name":"Herald Fire Station Number 88","source":"USGS Geonames"},"geometry":{"type":"Point","coordinates":[-121.1602234,38.3346356]},"id":"node/368167944"},{"type":"Feature","properties":{"@id":"node/368167945","addr:state":"CA","amenity":"fire_station","ele":"14","gnis:county_name":"Sacramento","gnis:feature_id":"2061341","gnis:import_uuid":"57871b70-0100-4405-bb30-88b2e001a944","gnis:reviewed":"no","name":"Galt Fire Station","source":"USGS Geonames"},"geometry":{"type":"Point","coordinates":[-121.3088376,38.2540818]},"id":"node/368167945"},{"type":"Feature","properties":{"@id":"node/368167946","addr:state":"CA","amenity":"fire_station","ele":"93","gnis:county_name":"Sacramento","gnis:feature_id":"2061326","gnis:import_uuid":"57871b70-0100-4405-bb30-88b2e001a944","gnis:reviewed":"no","name":"Folsom Fire Station Number 36","source":"USGS Geonames"},"geometry":{"type":"Point","coordinates":[-121.1841142,38.6965697]},"id":"node/368167946"},{"type":"Feature","properties":{"@id":"node/368167947","addr:state":"CA","amenity":"fire_station","ele":"107","gnis:county_name":"Sacramento","gnis:feature_id":"2061325","gnis:import_uuid":"57871b70-0100-4405-bb30-88b2e001a944","gnis:reviewed":"no","name":"Folsom Fire Station Number 38","source":"USGS Geonames"},"geometry":{"type":"Point","coordinates":[-121.1366129,38.6771258]},"id":"node/368167947"},{"type":"Feature","properties":{"@id":"node/368167949","addr:state":"CA","amenity":"fire_station","ele":"83","gnis:county_name":"Sacramento","gnis:feature_id":"2061323","gnis:import_uuid":"57871b70-0100-4405-bb30-88b2e001a944","gnis:reviewed":"no","name":"Folsom Fire Station Number 35","source":"USGS Geonames"},"geometry":{"type":"Point","coordinates":[-121.1655024,38.6682371]},"id":"node/368167949"},{"type":"Feature","properties":{"@id":"node/368167950","addr:state":"CA","amenity":"fire_station","ele":"21","gnis:county_name":"Sacramento","gnis:feature_id":"2061321","gnis:import_uuid":"57871b70-0100-4405-bb30-88b2e001a944","gnis:reviewed":"no","name":"Florin Fire Station","source":"USGS Geonames"},"geometry":{"type":"Point","coordinates":[-121.3316174,38.5104632]},"id":"node/368167950"},{"type":"Feature","properties":{"@id":"node/368167953","addr:state":"CA","amenity":"fire_station","ele":"10","gnis:county_name":"Sacramento","gnis:feature_id":"2061311","gnis:import_uuid":"57871b70-0100-4405-bb30-88b2e001a944","gnis:reviewed":"no","name":"Elk Grove Fire Station Number 76","source":"USGS Geonames"},"geometry":{"type":"Point","coordinates":[-121.3877296,38.4385205]},"id":"node/368167953"},{"type":"Feature","properties":{"@id":"node/368167960","addr:state":"CA","amenity":"fire_station","ele":"5","gnis:county_name":"Sacramento","gnis:feature_id":"2061310","gnis:import_uuid":"57871b70-0100-4405-bb30-88b2e001a944","gnis:reviewed":"no","name":"Elk Grove Fire Station Number 75","source":"USGS Geonames"},"geometry":{"type":"Point","coordinates":[-121.4816206,38.4154653]},"id":"node/368167960"},{"type":"Feature","properties":{"@id":"node/368167962","addr:state":"CA","amenity":"fire_station","ele":"18","gnis:county_name":"Sacramento","gnis:feature_id":"2061308","gnis:import_uuid":"57871b70-0100-4405-bb30-88b2e001a944","gnis:reviewed":"no","name":"Elk Grove Fire Station Number 73","source":"USGS Geonames"},"geometry":{"type":"Point","coordinates":[-121.3388393,38.4243544]},"id":"node/368167962"},{"type":"Feature","properties":{"@id":"node/368167963","addr:state":"CA","amenity":"fire_station","ele":"6","gnis:county_name":"Sacramento","gnis:feature_id":"2061307","gnis:import_uuid":"57871b70-0100-4405-bb30-88b2e001a944","gnis:reviewed":"no","name":"Elk Grove Fire Station Number 72","source":"USGS Geonames"},"geometry":{"type":"Point","coordinates":[-121.4566197,38.3771332]},"id":"node/368167963"},{"type":"Feature","properties":{"@id":"node/368167964","addr:state":"CA","amenity":"fire_station","ele":"11","gnis:county_name":"Sacramento","gnis:feature_id":"2061306","gnis:import_uuid":"57871b70-0100-4405-bb30-88b2e001a944","gnis:reviewed":"no","name":"Elk Grove Fire Station Number 71","source":"USGS Geonames"},"geometry":{"type":"Point","coordinates":[-121.3780068,38.4085215]},"id":"node/368167964"},{"type":"Feature","properties":{"@id":"node/368167965","addr:state":"CA","amenity":"fire_station","ele":"3","gnis:county_name":"Sacramento","gnis:feature_id":"2061285","gnis:import_uuid":"57871b70-0100-4405-bb30-88b2e001a944","gnis:reviewed":"no","name":"Courtland Fire Station Number 91","source":"USGS Geonames"},"geometry":{"type":"Point","coordinates":[-121.5702327,38.328801]},"id":"node/368167965"},{"type":"Feature","properties":{"@id":"node/368167969","addr:state":"CA","amenity":"fire_station","ele":"50","gnis:county_name":"Orange","gnis:feature_id":"2101214","gnis:import_uuid":"57871b70-0100-4405-bb30-88b2e001a944","gnis:reviewed":"no","name":"Fullerton Fire Station 1","source":"USGS Geonames"},"geometry":{"type":"Point","coordinates":[-117.9191711,33.870088]},"id":"node/368167969"},{"type":"Feature","properties":{"@id":"node/368167970","addr:state":"CA","amenity":"fire_station","ele":"34","gnis:county_name":"Orange","gnis:feature_id":"2101215","gnis:import_uuid":"57871b70-0100-4405-bb30-88b2e001a944","gnis:reviewed":"no","name":"Fullerton Fire Station 2","source":"USGS Geonames"},"geometry":{"type":"Point","coordinates":[-117.9590382,33.8662843]},"id":"node/368167970"},{"type":"Feature","properties":{"@id":"node/368167971","addr:state":"CA","amenity":"fire_station","ele":"56","gnis:county_name":"Orange","gnis:feature_id":"2101216","gnis:import_uuid":"57871b70-0100-4405-bb30-88b2e001a944","gnis:reviewed":"no","name":"Fullerton Fire Station 3","source":"USGS Geonames"},"geometry":{"type":"Point","coordinates":[-117.8977778,33.8644444]},"id":"node/368167971"},{"type":"Feature","properties":{"@id":"node/368167972","addr:state":"CA","amenity":"fire_station","ele":"99","gnis:county_name":"Orange","gnis:feature_id":"2101217","gnis:import_uuid":"57871b70-0100-4405-bb30-88b2e001a944","gnis:reviewed":"no","name":"Fullerton Fire Station 4","source":"USGS Geonames"},"geometry":{"type":"Point","coordinates":[-117.9311111,33.9086111]},"id":"node/368167972"},{"type":"Feature","properties":{"@id":"node/368167985","addr:city":"Brea","addr:state":"CA","amenity":"fire_station","ele":"117","gnis:county_name":"Orange","gnis:feature_id":"2101207","gnis:import_uuid":"57871b70-0100-4405-bb30-88b2e001a944","gnis:reviewed":"no","name":"Brea Fire Station 1","source":"USGS Geonames"},"geometry":{"type":"Point","coordinates":[-117.9070601,33.9271243]},"id":"node/368167985"},{"type":"Feature","properties":{"@id":"node/368167989","addr:state":"CA","amenity":"fire_station","ele":"104","gnis:county_name":"Orange","gnis:feature_id":"2101208","gnis:import_uuid":"57871b70-0100-4405-bb30-88b2e001a944","gnis:reviewed":"no","name":"Brea Fire Station 2","source":"USGS Geonames"},"geometry":{"type":"Point","coordinates":[-117.8976129,33.9208387]},"id":"node/368167989"},{"type":"Feature","properties":{"@id":"node/368167992","addr:state":"CA","amenity":"fire_station","ele":"18","gnis:county_name":"Orange","gnis:feature_id":"2101209","gnis:import_uuid":"57871b70-0100-4405-bb30-88b2e001a944","gnis:reviewed":"no","name":"Costa Mesa Fire Station 1","source":"USGS Geonames"},"geometry":{"type":"Point","coordinates":[-117.9222578,33.6737486]},"id":"node/368167992"},{"type":"Feature","properties":{"@id":"node/368167999","addr:state":"CA","amenity":"fire_station","ele":"11","gnis:county_name":"Orange","gnis:feature_id":"2101210","gnis:import_uuid":"57871b70-0100-4405-bb30-88b2e001a944","gnis:reviewed":"no","name":"Costa Mesa Fire Station 2","source":"USGS Geonames"},"geometry":{"type":"Point","coordinates":[-117.8898983,33.6804385]},"id":"node/368167999"},{"type":"Feature","properties":{"@id":"node/368168004","addr:state":"CA","amenity":"fire_station","ele":"27","gnis:county_name":"Orange","gnis:feature_id":"2101211","gnis:import_uuid":"57871b70-0100-4405-bb30-88b2e001a944","gnis:reviewed":"no","name":"Costa Mesa Fire Station 3","source":"USGS Geonames"},"geometry":{"type":"Point","coordinates":[-117.9213889,33.6425]},"id":"node/368168004"},{"type":"Feature","properties":{"@id":"node/368168008","addr:state":"CA","amenity":"fire_station","ele":"22","gnis:county_name":"Orange","gnis:feature_id":"2101213","gnis:import_uuid":"57871b70-0100-4405-bb30-88b2e001a944","gnis:reviewed":"no","name":"Costa Mesa Fire Station 5","source":"USGS Geonames"},"geometry":{"type":"Point","coordinates":[-117.9044444,33.662479]},"id":"node/368168008"},{"type":"Feature","properties":{"@id":"node/368168010","addr:state":"CA","amenity":"fire_station","ele":"49","gnis:county_name":"Orange","gnis:feature_id":"2101198","gnis:import_uuid":"57871b70-0100-4405-bb30-88b2e001a944","gnis:reviewed":"no","name":"Anaheim Fire Station 1","source":"USGS Geonames"},"geometry":{"type":"Point","coordinates":[-117.9079127,33.8342653]},"id":"node/368168010"},{"type":"Feature","properties":{"@id":"node/368168015","addr:state":"CA","amenity":"fire_station","ele":"37","gnis:county_name":"Orange","gnis:feature_id":"2101202","gnis:import_uuid":"57871b70-0100-4405-bb30-88b2e001a944","gnis:reviewed":"no","name":"Anaheim Fire Station 5","source":"USGS Geonames"},"geometry":{"type":"Point","coordinates":[-117.9575,33.8533333]},"id":"node/368168015"},{"type":"Feature","properties":{"@id":"node/368168020","addr:state":"CA","amenity":"fire_station","ele":"53","gnis:county_name":"Orange","gnis:feature_id":"2101204","gnis:import_uuid":"57871b70-0100-4405-bb30-88b2e001a944","gnis:reviewed":"no","name":"Anaheim Fire Station 7","source":"USGS Geonames"},"geometry":{"type":"Point","coordinates":[-117.8852816,33.8178157]},"id":"node/368168020"},{"type":"Feature","properties":{"@id":"node/368168021","addr:state":"CA","amenity":"fire_station","ele":"201","gnis:county_name":"Los Angeles","gnis:feature_id":"2086688","gnis:import_uuid":"57871b70-0100-4405-bb30-88b2e001a944","gnis:reviewed":"no","name":"Burbank Fire Station Number 13","source":"USGS Geonames"},"geometry":{"type":"Point","coordinates":[-118.3377778,34.1969444]},"id":"node/368168021"},{"type":"Feature","properties":{"@id":"node/368168022","addr:city":"Glendale","addr:housenumber":"1127","addr:postcode":"91201","addr:state":"CA","addr:street":"Western Avenue","amenity":"fire_station","ele":"169","gnis:county_name":"Los Angeles","gnis:feature_id":"2084477","gnis:import_uuid":"57871b70-0100-4405-bb30-88b2e001a944","gnis:reviewed":"no","name":"Glendale Fire Station 27","phone":"1-818-548-4027","source":"USGS Geonames"},"geometry":{"type":"Point","coordinates":[-118.2890972,34.1720939]},"id":"node/368168022"},{"type":"Feature","properties":{"@id":"node/368168023","addr:state":"CA","amenity":"fire_station","ele":"163","gnis:county_name":"Los Angeles","gnis:feature_id":"2086701","gnis:import_uuid":"57871b70-0100-4405-bb30-88b2e001a944","gnis:reviewed":"no","name":"Burbank Fire Station Number 5","source":"USGS Geonames"},"geometry":{"type":"Point","coordinates":[-118.3211111,34.1683333]},"id":"node/368168023"},{"type":"Feature","properties":{"@id":"node/368168024","addr:state":"CA","amenity":"fire_station","ele":"172","gnis:county_name":"Los Angeles","gnis:feature_id":"2086700","gnis:import_uuid":"57871b70-0100-4405-bb30-88b2e001a944","gnis:reviewed":"no","name":"Burbank Fire Station Number 12","source":"USGS Geonames"},"geometry":{"type":"Point","coordinates":[-118.3439821,34.1626056]},"id":"node/368168024"},{"type":"Feature","properties":{"@id":"node/368168027","addr:city":"Berkeley","addr:housenumber":"997","addr:state":"CA","addr:street":"Cedar Street","amenity":"fire_station","ele":"9","gnis:county_name":"Alameda","gnis:feature_id":"2086816","gnis:import_uuid":"57871b70-0100-4405-bb30-88b2e001a944","gnis:reviewed":"no","name":"Berkeley Engine Company Number 6","source":"USGS Geonames"},"geometry":{"type":"Point","coordinates":[-122.2969639,37.8748143]},"id":"node/368168027"},{"type":"Feature","properties":{"@id":"node/368168029","addr:city":"Emeryville","addr:housenumber":"2333","addr:state":"CA","addr:street":"Powell Street","amenity":"fire_station","ele":"2","gnis:county_name":"Alameda","gnis:feature_id":"2087487","gnis:import_uuid":"57871b70-0100-4405-bb30-88b2e001a944","gnis:reviewed":"no","name":"Emeryville Fire Station Number 34","source":"Emeryville Public Facilities map"},"geometry":{"type":"Point","coordinates":[-122.3032905,37.8369378]},"id":"node/368168029"},{"type":"Feature","properties":{"@id":"node/368168030","addr:state":"CA","amenity":"fire_station","ele":"39","gnis:county_name":"Sacramento","gnis:feature_id":"2061565","gnis:import_uuid":"57871b70-0100-4405-bb30-88b2e001a944","gnis:reviewed":"no","name":"Wilton Fire Station Number 84","source":"USGS Geonames"},"geometry":{"type":"Point","coordinates":[-121.2235584,38.3701898]},"id":"node/368168030"},{"type":"Feature","properties":{"@id":"node/368168031","addr:state":"CA","amenity":"fire_station","ele":"25","gnis:county_name":"Sacramento","gnis:feature_id":"2061566","gnis:import_uuid":"57871b70-0100-4405-bb30-88b2e001a944","gnis:reviewed":"no","name":"Wilton Fire Station","source":"USGS Geonames"},"geometry":{"type":"Point","coordinates":[-121.2577261,38.4012999]},"id":"node/368168031"},{"type":"Feature","properties":{"@id":"node/368168032","addr:state":"CA","amenity":"fire_station","ele":"3","gnis:county_name":"Sacramento","gnis:feature_id":"2061557","gnis:import_uuid":"57871b70-0100-4405-bb30-88b2e001a944","gnis:reviewed":"no","name":"Walnut Grove Fire Station","source":"USGS Geonames"},"geometry":{"type":"Point","coordinates":[-121.5135641,38.2460259]},"id":"node/368168032"},{"type":"Feature","properties":{"@id":"node/368168033","addr:state":"CA","amenity":"fire_station","ele":"4","gnis:county_name":"Sacramento","gnis:feature_id":"2061558","gnis:import_uuid":"57871b70-0100-4405-bb30-88b2e001a944","gnis:reviewed":"no","name":"Walnut Grove Fire Station","source":"USGS Geonames"},"geometry":{"type":"Point","coordinates":[-121.5121752,38.2415816]},"id":"node/368168033"},{"type":"Feature","properties":{"@id":"node/368168034","addr:city":"Glendale","addr:housenumber":"353","addr:postcode":"91206","addr:state":"CA","addr:street":"N Chevy Chase Drive","amenity":"fire_station","description":"Built in 1988. One of the busiest districts in Glendale. This fire station houses a engine company and rescue. It also maintains one of our reserve engine apparatus. Nickname: Home of the New \"Devil Rig\".","ele":"189","gnis:county_name":"Los Angeles","gnis:feature_id":"2084449","gnis:import_uuid":"57871b70-0100-4405-bb30-88b2e001a944","gnis:reviewed":"no","name":"Glendale Fire Station 25","operator":"Glendale Fire Department","source":"USGS Geonames","website":"https://www.glendaleca.gov/government/departments/fire-department"},"geometry":{"type":"Point","coordinates":[-118.2371745,34.1513118]},"id":"node/368168034"},{"type":"Feature","properties":{"@id":"node/368168036","addr:city":"Glendale","addr:housenumber":"1145","addr:postcode":"91202","addr:state":"CA","addr:street":"N Brand Boulevard","amenity":"fire_station","description":"Built in 1951. This Fire Station is one of 3 stations which house a full task force. Nickname: \"The PIT\"","ele":"174","gnis:county_name":"Los Angeles","gnis:feature_id":"2084476","gnis:import_uuid":"57871b70-0100-4405-bb30-88b2e001a944","gnis:reviewed":"no","name":"Glendale Fire Station 26","operator":"Glendale Fire Department","phone":"+1-818-548-4026","source":"USGS Geonames"},"geometry":{"type":"Point","coordinates":[-118.2555556,34.1630556]},"id":"node/368168036"},{"type":"Feature","properties":{"@id":"node/368168037","addr:state":"CA","amenity":"fire_station","ele":"35","gnis:county_name":"Sacramento","gnis:feature_id":"2061567","gnis:import_uuid":"57871b70-0100-4405-bb30-88b2e001a944","gnis:reviewed":"no","name":"Wilton Fire Station Number 83","source":"USGS Geonames"},"geometry":{"type":"Point","coordinates":[-121.1882801,38.4426878]},"id":"node/368168037"},{"type":"Feature","properties":{"@id":"node/368168039","addr:state":"CA","amenity":"fire_station","ele":"44","gnis:county_name":"Sacramento","gnis:feature_id":"2061512","gnis:import_uuid":"57871b70-0100-4405-bb30-88b2e001a944","gnis:reviewed":"no","name":"Sacramento Metro Fire Station Number 63","source":"USGS Geonames"},"geometry":{"type":"Point","coordinates":[-121.2168925,38.6290714]},"id":"node/368168039"},{"type":"Feature","properties":{"@id":"node/368168040","addr:state":"CA","amenity":"fire_station","ele":"16","gnis:county_name":"Sacramento","gnis:feature_id":"2061513","gnis:import_uuid":"57871b70-0100-4405-bb30-88b2e001a944","gnis:reviewed":"no","name":"Sacramento Metro Fire Station Number 64","source":"USGS Geonames"},"geometry":{"type":"Point","coordinates":[-121.3588405,38.5635172]},"id":"node/368168040"},{"type":"Feature","properties":{"@id":"node/368168041","addr:state":"CA","amenity":"fire_station","ele":"29","gnis:county_name":"Sacramento","gnis:feature_id":"2061510","gnis:import_uuid":"57871b70-0100-4405-bb30-88b2e001a944","gnis:reviewed":"no","name":"Sacramento Metro Fire Station Number 61","source":"USGS Geonames"},"geometry":{"type":"Point","coordinates":[-121.2955055,38.5932388]},"id":"node/368168041"},{"type":"Feature","properties":{"@id":"node/368168042","addr:state":"CA","amenity":"fire_station","ele":"21","gnis:county_name":"Sacramento","gnis:feature_id":"2061511","gnis:import_uuid":"57871b70-0100-4405-bb30-88b2e001a944","gnis:reviewed":"no","name":"Sacramento Metro Fire Station Number 62","source":"USGS Geonames"},"geometry":{"type":"Point","coordinates":[-121.3366177,38.555462]},"id":"node/368168042"},{"type":"Feature","properties":{"@id":"node/368168043","addr:state":"CA","amenity":"fire_station","ele":"25","gnis:county_name":"Sacramento","gnis:feature_id":"2061516","gnis:import_uuid":"57871b70-0100-4405-bb30-88b2e001a944","gnis:reviewed":"no","name":"Sacramento Metro Fire Station Number 67","source":"USGS Geonames"},"geometry":{"type":"Point","coordinates":[-121.3066169,38.5590731]},"id":"node/368168043"},{"type":"Feature","properties":{"@id":"node/368168044","addr:state":"CA","amenity":"fire_station","ele":"23","gnis:county_name":"Sacramento","gnis:feature_id":"2061519","gnis:import_uuid":"57871b70-0100-4405-bb30-88b2e001a944","gnis:reviewed":"no","name":"Sacramento Metro Fire Station Number 114","source":"USGS Geonames"},"geometry":{"type":"Point","coordinates":[-121.3966196,38.6732365]},"id":"node/368168044"},{"type":"Feature","properties":{"@id":"node/368168045","addr:state":"CA","amenity":"fire_station","ele":"35","gnis:county_name":"Sacramento","gnis:feature_id":"2061514","gnis:import_uuid":"57871b70-0100-4405-bb30-88b2e001a944","gnis:reviewed":"no","name":"Sacramento Metro Fire Station Number 65","source":"USGS Geonames"},"geometry":{"type":"Point","coordinates":[-121.2657826,38.6190716]},"id":"node/368168045"},{"type":"Feature","properties":{"@id":"node/368168046","addr:state":"CA","amenity":"fire_station","ele":"35","gnis:county_name":"Sacramento","gnis:feature_id":"2061515","gnis:import_uuid":"57871b70-0100-4405-bb30-88b2e001a944","gnis:reviewed":"no","name":"Sacramento Metro Fire Station Number 66","source":"USGS Geonames"},"geometry":{"type":"Point","coordinates":[-121.2710605,38.5874058]},"id":"node/368168046"},{"type":"Feature","properties":{"@id":"node/368168047","addr:state":"CA","amenity":"fire_station","ele":"8","gnis:county_name":"Sacramento","gnis:feature_id":"2061505","gnis:import_uuid":"57871b70-0100-4405-bb30-88b2e001a944","gnis:reviewed":"no","name":"Sacramento Metro Fire Station Number 53","source":"USGS Geonames"},"geometry":{"type":"Point","coordinates":[-121.4241198,38.48713]},"id":"node/368168047"},{"type":"Feature","properties":{"@id":"node/368168048","addr:state":"CA","amenity":"fire_station","ele":"10","gnis:county_name":"Sacramento","gnis:feature_id":"2061504","gnis:import_uuid":"57871b70-0100-4405-bb30-88b2e001a944","gnis:reviewed":"no","name":"Sacramento Metro Fire Station Number 51","source":"USGS Geonames"},"geometry":{"type":"Point","coordinates":[-121.4035634,38.4596309]},"id":"node/368168048"},{"type":"Feature","properties":{"@id":"node/368168051","addr:state":"CA","amenity":"fire_station","ele":"14","gnis:county_name":"Sacramento","gnis:feature_id":"2061503","gnis:import_uuid":"57871b70-0100-4405-bb30-88b2e001a944","gnis:reviewed":"no","name":"Sacramento Metro Fire Station Number 50","source":"USGS Geonames"},"geometry":{"type":"Point","coordinates":[-121.3738406,38.4812971]},"id":"node/368168051"},{"type":"Feature","properties":{"@id":"node/368168052","addr:state":"CA","amenity":"fire_station","ele":"15","gnis:county_name":"Sacramento","gnis:feature_id":"2061502","gnis:import_uuid":"57871b70-0100-4405-bb30-88b2e001a944","gnis:reviewed":"no","name":"Sacramento Metro Fire Station Number 46","source":"USGS Geonames"},"geometry":{"type":"Point","coordinates":[-121.2892681,38.2798535]},"id":"node/368168052"},{"type":"Feature","properties":{"@id":"node/368168053","addr:state":"CA","amenity":"fire_station","ele":"44","gnis:county_name":"Sacramento","gnis:feature_id":"2061509","gnis:import_uuid":"57871b70-0100-4405-bb30-88b2e001a944","gnis:reviewed":"no","name":"Sacramento Metro Fire Station Number 59","source":"USGS Geonames"},"geometry":{"type":"Point","coordinates":[-121.0993892,38.4960196]},"id":"node/368168053"},{"type":"Feature","properties":{"@id":"node/368168054","addr:state":"CA","amenity":"fire_station","ele":"59","gnis:county_name":"Sacramento","gnis:feature_id":"2061508","gnis:import_uuid":"57871b70-0100-4405-bb30-88b2e001a944","gnis:reviewed":"no","name":"Sacramento Metro Fire Station Number 58","source":"USGS Geonames"},"geometry":{"type":"Point","coordinates":[-121.2110586,38.4946306]},"id":"node/368168054"},{"type":"Feature","properties":{"@id":"node/368168055","addr:state":"CA","amenity":"fire_station","ele":"32","gnis:county_name":"Sacramento","gnis:feature_id":"2061507","gnis:import_uuid":"57871b70-0100-4405-bb30-88b2e001a944","gnis:reviewed":"no","name":"Sacramento Metro Fire Station Number 55","source":"USGS Geonames"},"geometry":{"type":"Point","coordinates":[-121.298283,38.4754643]},"id":"node/368168055"},{"type":"Feature","properties":{"@id":"node/368168056","addr:state":"CA","amenity":"fire_station","ele":"17","gnis:county_name":"Sacramento","gnis:feature_id":"2061506","gnis:import_uuid":"57871b70-0100-4405-bb30-88b2e001a944","gnis:reviewed":"no","name":"Sacramento Metro Fire Station Number 54","source":"USGS Geonames"},"geometry":{"type":"Point","coordinates":[-121.3718963,38.5457398]},"id":"node/368168056"},{"type":"Feature","properties":{"@id":"node/368168057","addr:state":"CA","amenity":"fire_station","ele":"80","gnis:county_name":"Sacramento","gnis:feature_id":"2061497","gnis:import_uuid":"57871b70-0100-4405-bb30-88b2e001a944","gnis:reviewed":"no","name":"Sacramento Metro Fire Station Number 32","source":"USGS Geonames"},"geometry":{"type":"Point","coordinates":[-121.2260595,38.6565707]},"id":"node/368168057"},{"type":"Feature","properties":{"@id":"node/368168058","addr:state":"CA","amenity":"fire_station","ele":"59","gnis:county_name":"Sacramento","gnis:feature_id":"2061496","gnis:import_uuid":"57871b70-0100-4405-bb30-88b2e001a944","gnis:reviewed":"no","name":"Sacramento Metro Fire Station Number 31","source":"USGS Geonames"},"geometry":{"type":"Point","coordinates":[-121.2713385,38.6418487]},"id":"node/368168058"},{"type":"Feature","properties":{"@id":"node/368168060","addr:state":"CA","amenity":"fire_station","ele":"59","gnis:county_name":"Sacramento","gnis:feature_id":"2061494","gnis:import_uuid":"57871b70-0100-4405-bb30-88b2e001a944","gnis:reviewed":"no","name":"Sacramento Metro Fire Station Number 28","source":"USGS Geonames"},"geometry":{"type":"Point","coordinates":[-121.2582827,38.700736]},"id":"node/368168060"},{"type":"Feature","properties":{"@id":"node/368168074","addr:state":"CA","amenity":"fire_station","ele":"15","gnis:county_name":"Sacramento","gnis:feature_id":"2061501","gnis:import_uuid":"57871b70-0100-4405-bb30-88b2e001a944","gnis:reviewed":"no","name":"Sacramento Metro Fire Station Number 45","source":"USGS Geonames"},"geometry":{"type":"Point","coordinates":[-121.3041153,38.2532484]},"id":"node/368168074"},{"type":"Feature","properties":{"@id":"node/368168084","addr:state":"CA","amenity":"fire_station","ele":"31","gnis:county_name":"Sacramento","gnis:feature_id":"2061499","gnis:import_uuid":"57871b70-0100-4405-bb30-88b2e001a944","gnis:reviewed":"no","name":"Sacramento Metro Fire Station Number 41","source":"USGS Geonames"},"geometry":{"type":"Point","coordinates":[-121.3757857,38.6926806]},"id":"node/368168084"},{"type":"Feature","properties":{"@id":"node/368168085","addr:state":"CA","amenity":"fire_station","ele":"71","gnis:county_name":"Sacramento","gnis:feature_id":"2061498","gnis:import_uuid":"57871b70-0100-4405-bb30-88b2e001a944","gnis:reviewed":"no","name":"Sacramento Metro Fire Station Number 33","source":"USGS Geonames"},"geometry":{"type":"Point","coordinates":[-121.20217,38.661015]},"id":"node/368168085"},{"type":"Feature","properties":{"@id":"node/368168169","addr:state":"CA","amenity":"fire_station","ele":"30","gnis:county_name":"Orange","gnis:feature_id":"2101230","gnis:import_uuid":"57871b70-0100-4405-bb30-88b2e001a944","gnis:reviewed":"no","name":"Laguna Beach Fire Station 2","source":"USGS Geonames"},"geometry":{"type":"Point","coordinates":[-117.7706079,33.5298636]},"id":"node/368168169"},{"type":"Feature","properties":{"@id":"node/368168170","addr:state":"CA","amenity":"fire_station","ele":"3","gnis:county_name":"Orange","gnis:feature_id":"2101232","gnis:import_uuid":"57871b70-0100-4405-bb30-88b2e001a944","gnis:reviewed":"no","name":"Newport Beach Fire Station 1","source":"USGS Geonames"},"geometry":{"type":"Point","coordinates":[-117.9061111,33.6041667]},"id":"node/368168170"},{"type":"Feature","properties":{"@id":"node/368168172","addr:state":"CA","amenity":"fire_station","ele":"39","gnis:county_name":"Orange","gnis:feature_id":"2101234","gnis:import_uuid":"57871b70-0100-4405-bb30-88b2e001a944","gnis:reviewed":"no","name":"Newport Beach Fire Station 3","source":"USGS Geonames"},"geometry":{"type":"Point","coordinates":[-117.8802778,33.6225]},"id":"node/368168172"},{"type":"Feature","properties":{"@id":"node/368168173","addr:state":"CA","amenity":"fire_station","ele":"3","gnis:county_name":"Orange","gnis:feature_id":"2101235","gnis:import_uuid":"57871b70-0100-4405-bb30-88b2e001a944","gnis:reviewed":"no","name":"Newport Beach Fire Station 4","source":"USGS Geonames"},"geometry":{"type":"Point","coordinates":[-117.8896016,33.6055391]},"id":"node/368168173"},{"type":"Feature","properties":{"@id":"node/368168174","addr:state":"CA","amenity":"fire_station","ele":"31","gnis:county_name":"Orange","gnis:feature_id":"2101236","gnis:import_uuid":"57871b70-0100-4405-bb30-88b2e001a944","gnis:reviewed":"no","name":"Newport Beach Fire Station 5","source":"USGS Geonames"},"geometry":{"type":"Point","coordinates":[-117.8697222,33.5961111]},"id":"node/368168174"},{"type":"Feature","properties":{"@id":"node/368168186","addr:state":"CA","amenity":"fire_station","ele":"87","gnis:county_name":"Orange","gnis:feature_id":"2101227","gnis:import_uuid":"57871b70-0100-4405-bb30-88b2e001a944","gnis:reviewed":"no","name":"Los Angeles County Fire Department Station #191","ref":"LAC191","source":"USGS Geonames"},"geometry":{"type":"Point","coordinates":[-117.9557473,33.9316506]},"id":"node/368168186"},{"type":"Feature","properties":{"@id":"node/368168188","addr:state":"CA","amenity":"fire_station","ele":"94","gnis:county_name":"Orange","gnis:feature_id":"2101228","gnis:import_uuid":"57871b70-0100-4405-bb30-88b2e001a944","gnis:reviewed":"no","name":"Los Angeles County Fire Department Station #192","ref":"LAC192","source":"USGS Geonames"},"geometry":{"type":"Point","coordinates":[-117.9326214,33.9269991]},"id":"node/368168188"},{"type":"Feature","properties":{"@id":"node/368168190","addr:city":"Laguna Beach","addr:housename":"501","addr:postcode":"92651","addr:state":"CA","addr:street":"Forest Avenue","amenity":"fire_station","ele":"13","gnis:county_name":"Orange","gnis:feature_id":"2101229","gnis:import_uuid":"57871b70-0100-4405-bb30-88b2e001a944","name":"Laguna Beach Fire Station 1","operator":"Laguna Beach Fire Department","ref":"1","source":"USGS Geonames"},"geometry":{"type":"Point","coordinates":[-117.7811828,33.5451962]},"id":"node/368168190"},{"type":"Feature","properties":{"@id":"node/368168202","addr:state":"CA","amenity":"fire_station","ele":"89","gnis:county_name":"Orange","gnis:feature_id":"2101239","gnis:import_uuid":"57871b70-0100-4405-bb30-88b2e001a944","gnis:reviewed":"no","name":"Orange Fire Station 2","source":"USGS Geonames"},"geometry":{"type":"Point","coordinates":[-117.8225,33.8022222]},"id":"node/368168202"},{"type":"Feature","properties":{"@id":"node/368168208","addr:state":"CA","amenity":"fire_station","ele":"88","gnis:county_name":"Orange","gnis:feature_id":"2101241","gnis:import_uuid":"57871b70-0100-4405-bb30-88b2e001a944","gnis:reviewed":"no","name":"Orange Fire Station 4","source":"USGS Geonames"},"geometry":{"type":"Point","coordinates":[-117.8094444,33.7861111]},"id":"node/368168208"},{"type":"Feature","properties":{"@id":"node/368168219","addr:state":"CA","amenity":"fire_station","ele":"15","gnis:county_name":"Orange","gnis:feature_id":"2101246","gnis:import_uuid":"57871b70-0100-4405-bb30-88b2e001a944","gnis:reviewed":"no","name":"OCFA Station 13","operator":"Orange County Fire Authority","source":"USGS Geonames"},"geometry":{"type":"Point","coordinates":[-118.036469,33.8493038]},"id":"node/368168219"},{"type":"Feature","properties":{"@id":"node/368168299","addr:state":"CA","amenity":"fire_station","ele":"49","gnis:county_name":"Los Angeles","gnis:feature_id":"2105687","gnis:import_uuid":"57871b70-0100-4405-bb30-88b2e001a944","gnis:reviewed":"no","name":"Los Angeles County Fire Department Station #103","ref":"LAC103","source":"USGS Geonames"},"geometry":{"type":"Point","coordinates":[-118.1081906,33.982789]},"id":"node/368168299"},{"type":"Feature","properties":{"@id":"node/368168302","addr:state":"CA","amenity":"fire_station","ele":"392","gnis:county_name":"Los Angeles","gnis:feature_id":"2105686","gnis:import_uuid":"57871b70-0100-4405-bb30-88b2e001a944","gnis:reviewed":"no","name":"Los Angeles County Fire Department Station #102","ref":"LAC102","source":"USGS Geonames"},"geometry":{"type":"Point","coordinates":[-117.738145,34.1211044]},"id":"node/368168302"},{"type":"Feature","properties":{"@id":"node/368168304","addr:state":"CA","amenity":"fire_station","ele":"304","gnis:county_name":"Los Angeles","gnis:feature_id":"2105689","gnis:import_uuid":"57871b70-0100-4405-bb30-88b2e001a944","gnis:reviewed":"no","name":"Los Angeles County Fire Department Station #106","ref":"LAC106","source":"USGS Geonames"},"geometry":{"type":"Point","coordinates":[-118.37639,33.7721468]},"id":"node/368168304"},{"type":"Feature","properties":{"@id":"node/368168305","addr:state":"CA","amenity":"fire_station","ele":"16","gnis:county_name":"Los Angeles","gnis:feature_id":"2105688","gnis:import_uuid":"57871b70-0100-4405-bb30-88b2e001a944","gnis:reviewed":"no","name":"Los Angeles County Fire Department Station #105","ref":"LAC105","source":"USGS Geonames"},"geometry":{"type":"Point","coordinates":[-118.2165498,33.8597988]},"id":"node/368168305"},{"type":"Feature","properties":{"@id":"node/368168307","addr:state":"CA","amenity":"fire_station","ele":"19","gnis:county_name":"Los Angeles","gnis:feature_id":"2105682","gnis:import_uuid":"57871b70-0100-4405-bb30-88b2e001a944","gnis:reviewed":"no","name":"Los Angeles County Fire Department Station #95","ref":"LAC95","source":"USGS Geonames"},"geometry":{"type":"Point","coordinates":[-118.2775801,33.8931505]},"id":"node/368168307"},{"type":"Feature","properties":{"@id":"node/368168310","addr:state":"CA","amenity":"fire_station","ele":"351","gnis:county_name":"Los Angeles","gnis:feature_id":"2105685","gnis:import_uuid":"57871b70-0100-4405-bb30-88b2e001a944","gnis:reviewed":"no","name":"Los Angeles County Fire Department Station #101","ref":"LAC101","source":"USGS Geonames"},"geometry":{"type":"Point","coordinates":[-117.7236156,34.0962069]},"id":"node/368168310"},{"type":"Feature","properties":{"@id":"node/368168311","addr:state":"CA","amenity":"fire_station","ele":"25","gnis:county_name":"Los Angeles","gnis:feature_id":"2105684","gnis:import_uuid":"57871b70-0100-4405-bb30-88b2e001a944","gnis:reviewed":"no","name":"Los Angeles County Fire Department Station #98","ref":"LAC98","source":"USGS Geonames"},"geometry":{"type":"Point","coordinates":[-118.1249519,33.8998787]},"id":"node/368168311"},{"type":"Feature","properties":{"@id":"node/368168312","addr:state":"CA","amenity":"fire_station","ele":"231","gnis:county_name":"Los Angeles","gnis:feature_id":"2105695","gnis:import_uuid":"57871b70-0100-4405-bb30-88b2e001a944","gnis:reviewed":"no","name":"Los Angeles County Fire Department Station #141","ref":"LAC141","source":"USGS Geonames"},"geometry":{"type":"Point","coordinates":[-117.8294903,34.0745838]},"id":"node/368168312"},{"type":"Feature","properties":{"@id":"node/368168313","addr:state":"CA","amenity":"fire_station","designation":"Carson Fire Station","ele":"7","gnis:county_name":"Los Angeles","gnis:feature_id":"2105694","gnis:import_uuid":"57871b70-0100-4405-bb30-88b2e001a944","gnis:reviewed":"no","name":"Los Angeles County Fire Department Station #127","ref":"LAC127","source":"USGS Geonames"},"geometry":{"type":"Point","coordinates":[-118.2384084,33.8246242]},"id":"node/368168313"},{"type":"Feature","properties":{"@id":"node/368168314","addr:state":"CA","amenity":"fire_station","ele":"28","gnis:county_name":"Los Angeles","gnis:feature_id":"2105697","gnis:import_uuid":"57871b70-0100-4405-bb30-88b2e001a944","gnis:reviewed":"no","name":"Los Angeles County Fire Department Station #147","ref":"LAC147","source":"USGS Geonames"},"geometry":{"type":"Point","coordinates":[-118.214272,33.9304888]},"id":"node/368168314"},{"type":"Feature","properties":{"@id":"node/368168315","addr:state":"CA","amenity":"fire_station","ele":"146","gnis:county_name":"Los Angeles","gnis:feature_id":"2105696","gnis:import_uuid":"57871b70-0100-4405-bb30-88b2e001a944","gnis:reviewed":"no","name":"Los Angeles County Fire Department Station #145","ref":"LAC145","source":"USGS Geonames"},"geometry":{"type":"Point","coordinates":[-117.8895396,33.989319]},"id":"node/368168315"},{"type":"Feature","properties":{"@id":"node/368168316","addr:state":"CA","amenity":"fire_station","ele":"24","gnis:county_name":"Los Angeles","gnis:feature_id":"2105691","gnis:import_uuid":"57871b70-0100-4405-bb30-88b2e001a944","gnis:reviewed":"no","name":"Los Angeles County Fire Department Station #116","ref":"LAC116","source":"USGS Geonames"},"geometry":{"type":"Point","coordinates":[-118.2619027,33.8674625]},"id":"node/368168316"},{"type":"Feature","properties":{"@id":"node/368168317","addr:state":"CA","amenity":"fire_station","ele":"4","gnis:county_name":"Los Angeles","gnis:feature_id":"2105690","gnis:import_uuid":"57871b70-0100-4405-bb30-88b2e001a944","gnis:reviewed":"no","name":"Los Angeles County Fire Department Station #110","ref":"LAC110","source":"USGS Geonames"},"geometry":{"type":"Point","coordinates":[-118.4485978,33.9839323]},"id":"node/368168317"},{"type":"Feature","properties":{"@id":"node/368168319","addr:state":"CA","amenity":"fire_station","ele":"121","gnis:county_name":"Los Angeles","gnis:feature_id":"2105692","gnis:import_uuid":"57871b70-0100-4405-bb30-88b2e001a944","gnis:reviewed":"no","name":"Los Angeles County Fire Department Station #118","ref":"LAC118","source":"USGS Geonames"},"geometry":{"type":"Point","coordinates":[-117.935502,34.0002554]},"id":"node/368168319"},{"type":"Feature","properties":{"@id":"node/368168320","addr:state":"CA","amenity":"fire_station","ele":"172","gnis:county_name":"Los Angeles","gnis:feature_id":"2105702","gnis:import_uuid":"57871b70-0100-4405-bb30-88b2e001a944","gnis:reviewed":"no","name":"Los Angeles County Fire Department Station #154","ref":"LAC154","source":"USGS Geonames"},"geometry":{"type":"Point","coordinates":[-117.8882897,34.0896589]},"id":"node/368168320"},{"type":"Feature","properties":{"@id":"node/368168321","addr:state":"CA","amenity":"fire_station","ele":"14","gnis:county_name":"Los Angeles","gnis:feature_id":"2105703","gnis:import_uuid":"57871b70-0100-4405-bb30-88b2e001a944","gnis:reviewed":"no","name":"Los Angeles County Fire Department Station #158","ref":"LAC158","source":"USGS Geonames"},"geometry":{"type":"Point","coordinates":[-118.3061671,33.8835207]},"id":"node/368168321"},{"type":"Feature","properties":{"@id":"node/368168322","addr:state":"CA","amenity":"fire_station","ele":"14","gnis:county_name":"Los Angeles","gnis:feature_id":"2105704","gnis:import_uuid":"57871b70-0100-4405-bb30-88b2e001a944","gnis:reviewed":"no","name":"Los Angeles County Fire Department Station #159","ref":"LAC159","source":"USGS Geonames"},"geometry":{"type":"Point","coordinates":[-118.3147342,33.908939]},"id":"node/368168322"},{"type":"Feature","properties":{"@id":"node/368168324","addr:state":"CA","amenity":"fire_station","ele":"28","gnis:county_name":"Los Angeles","gnis:feature_id":"2105705","gnis:import_uuid":"57871b70-0100-4405-bb30-88b2e001a944","gnis:reviewed":"no","name":"Los Angeles County Fire Department Station #160","ref":"LAC160","source":"USGS Geonames"},"geometry":{"type":"Point","coordinates":[-118.3730025,33.9021182]},"id":"node/368168324"},{"type":"Feature","properties":{"@id":"node/368168325","addr:state":"CA","amenity":"fire_station","ele":"26","gnis:county_name":"Los Angeles","gnis:feature_id":"2105698","gnis:import_uuid":"57871b70-0100-4405-bb30-88b2e001a944","gnis:reviewed":"no","name":"Los Angeles County Fire Department Station #148","ref":"LAC148","source":"USGS Geonames"},"geometry":{"type":"Point","coordinates":[-118.1903709,33.9221695]},"id":"node/368168325"},{"type":"Feature","properties":{"@id":"node/368168326","addr:state":"CA","amenity":"fire_station","ele":"232","gnis:county_name":"Los Angeles","gnis:feature_id":"2105699","gnis:import_uuid":"57871b70-0100-4405-bb30-88b2e001a944","gnis:reviewed":"no","name":"Los Angeles County Fire Department Station #151","ref":"LAC151","source":"USGS Geonames"},"geometry":{"type":"Point","coordinates":[-117.8677587,34.1377991]},"id":"node/368168326"},{"type":"Feature","properties":{"@id":"node/368168327","addr:state":"CA","amenity":"fire_station","ele":"156","gnis:county_name":"Los Angeles","gnis:feature_id":"2105700","gnis:import_uuid":"57871b70-0100-4405-bb30-88b2e001a944","gnis:reviewed":"no","name":"Los Angeles County Fire Department Station #152","ref":"LAC152","source":"USGS Geonames"},"geometry":{"type":"Point","coordinates":[-117.9058849,34.0960693]},"id":"node/368168327"},{"type":"Feature","properties":{"@id":"node/368168328","addr:state":"CA","amenity":"fire_station","ele":"211","gnis:county_name":"Los Angeles","gnis:feature_id":"2105701","gnis:import_uuid":"57871b70-0100-4405-bb30-88b2e001a944","gnis:reviewed":"no","name":"Los Angeles County Fire Department Station #153","ref":"LAC153","source":"USGS Geonames"},"geometry":{"type":"Point","coordinates":[-117.8576052,34.0960871]},"id":"node/368168328"},{"type":"Feature","properties":{"@id":"node/368168329","addr:state":"CA","amenity":"fire_station","ele":"45","gnis:county_name":"Los Angeles","gnis:feature_id":"2105710","gnis:import_uuid":"57871b70-0100-4405-bb30-88b2e001a944","gnis:reviewed":"no","name":"Los Angeles County Fire Department Station #164","ref":"LAC165","source":"USGS Geonames"},"geometry":{"type":"Point","coordinates":[-118.2085453,33.9762899]},"id":"node/368168329"},{"type":"Feature","properties":{"@id":"node/368168330","addr:state":"CA","amenity":"fire_station","ele":"84","gnis:county_name":"Los Angeles","gnis:feature_id":"2105711","gnis:import_uuid":"57871b70-0100-4405-bb30-88b2e001a944","gnis:reviewed":"no","name":"Los Angeles County Fire Department Station #166","ref":"LAC166","source":"USGS Geonames"},"geometry":{"type":"Point","coordinates":[-118.041771,34.0750926]},"id":"node/368168330"},{"type":"Feature","properties":{"@id":"node/368168332","addr:state":"CA","amenity":"fire_station","ele":"91","gnis:county_name":"Los Angeles","gnis:feature_id":"2105713","gnis:import_uuid":"57871b70-0100-4405-bb30-88b2e001a944","gnis:reviewed":"no","name":"Los Angeles County Fire Department Station #168","ref":"LAC168","source":"USGS Geonames"},"geometry":{"type":"Point","coordinates":[-118.018417,34.0645811]},"id":"node/368168332"},{"type":"Feature","properties":{"@id":"node/368168333","addr:state":"CA","amenity":"fire_station","ele":"23","gnis:county_name":"Los Angeles","gnis:feature_id":"2105706","gnis:import_uuid":"57871b70-0100-4405-bb30-88b2e001a944","gnis:reviewed":"no","name":"Los Angeles County Fire Department Station #161","ref":"LAC161","source":"USGS Geonames"},"geometry":{"type":"Point","coordinates":[-118.3543799,33.9166565]},"id":"node/368168333"},{"type":"Feature","properties":{"@id":"node/368168335","addr:state":"CA","amenity":"fire_station","ele":"45","gnis:county_name":"Los Angeles","gnis:feature_id":"2105708","gnis:import_uuid":"57871b70-0100-4405-bb30-88b2e001a944","gnis:reviewed":"no","name":"Los Angeles County Fire Department Station #163","ref":"LAC163","source":"USGS Geonames"},"geometry":{"type":"Point","coordinates":[-118.1886114,33.979445]},"id":"node/368168335"},{"type":"Feature","properties":{"@id":"node/368168336","addr:state":"CA","amenity":"fire_station","ele":"51","gnis:county_name":"Los Angeles","gnis:feature_id":"2105709","gnis:import_uuid":"57871b70-0100-4405-bb30-88b2e001a944","gnis:reviewed":"no","name":"Los Angeles County Fire Department Station #164","ref":"LAC164","source":"USGS Geonames"},"geometry":{"type":"Point","coordinates":[-118.2306525,33.9813177]},"id":"node/368168336"},{"type":"Feature","properties":{"@id":"node/368168337","addr:state":"CA","amenity":"fire_station","ele":"278","gnis:county_name":"Los Angeles","gnis:feature_id":"2105721","gnis:import_uuid":"57871b70-0100-4405-bb30-88b2e001a944","gnis:reviewed":"no","name":"Los Angeles County Fire Department Station #183","ref":"LAC183","source":"USGS Geonames"},"geometry":{"type":"Point","coordinates":[-117.7363399,34.0655965]},"id":"node/368168337"},{"type":"Feature","properties":{"@id":"node/368168338","addr:state":"CA","amenity":"fire_station","ele":"268","gnis:county_name":"Los Angeles","gnis:feature_id":"2105720","gnis:import_uuid":"57871b70-0100-4405-bb30-88b2e001a944","gnis:reviewed":"no","name":"Los Angeles County Fire Department Station #182","ref":"LAC182","source":"USGS Geonames"},"geometry":{"type":"Point","coordinates":[-117.7595575,34.0676745]},"id":"node/368168338"},